loopIteration,time (us),axisRate[0],axisRate[1],axisRate[2],axisP[0],axisP[1],axisP[2],axisI[0],axisI[1],axisI[2],axisD[0],axisD[1],axisF[0],axisF[1],axisF[2],rcData[0],rcData[1],rcData[2],rcData[3],rcCommand[0],rcCommand[1],rcCommand[2],rcCommand[3],vbat (V),magADC[0],magADC[1],magADC[2],BaroAlt (cm),rssi,gyroADC[0],gyroADC[1],gyroADC[2],gyroRaw[0],gyroRaw[1],gyroRaw[2],accSmooth[0],accSmooth[1],accSmooth[2],accVib,quaternion[0],quaternion[1],quaternion[2],quaternion[3],motor[0],servo[0],servo[1],navState,navFlags,navEPH,navEPV,navPos[0],navPos[1],navPos[2],navVel[0],navVel[1],navVel[2],navTgtVel[0],navTgtVel[1],navTgtVel[2],navTgtPos[0],navTgtPos[1],navTgtPos[2],navTgtHdg,navSurf,activeWpNumber,flightModeFlags (flags),activeFlightModeFlags,stateFlags (flags),failsafePhase (flags),rxSignalReceived,rxFlightChannelsValid,rxUpdateRate,hwHealthStatus,powerSupplyImpedance,sagCompensatedVBat,wind[0],wind[1],wind[2],mspOverrideFlags,IMUTemperature,baroTemperature,sens0Temp,sens1Temp,sens2Temp,sens3Temp,sens4Temp,sens5Temp,sens6Temp,sens7Temp,escRPM,escTemperature
0,39278119,12,4,0,5,-3,2,0,0,0,0,0,19,10,0,1500,1498,1500,987,0,0,0,1050,12.610,573,-285,-1148,193,1023,1,13,-3,0,13,-3,38,-20,1997,41,9848,-319,-170,1698,1000,1482,1470,26,37,148,343,55,-217,0,0,-4,0,0,0,0,0,0,0,0,0,1,ARM,129,GPS_FIX_HOME|GPS_FIX|SMALL_ANGLE|FIXED_WING_LEGACY|ANTI_WINDUP|NAV_MOTOR_STOP_OR_IDLE|COMPASS_CALIBRATED|ACCELEROMETER_CALIBRATED|AIRMODE_ACTIVE|AIRPLANE|ALTITUDE_CONTROL|MOVE_FORWARD_ONLY|SET_REVERSIBLE_MOTORS_FORWARD,IDLE,1,1,128,341,0,0,0,0,0,1,253,244,-1250,-1250,-1250,-1250,-1250,-1250,-1250,-1250,1778576784,5
32,39294892,11,4,0,6,-3,1,0,0,0,0,0,19,9,0,1500,1498,1500,987,0,0,0,1050,12.610,573,-285,-1148,193,1023,-1,12,-3,-2,11,-2,12,-24,1991,43,9849,-321,-152,1693,1000,1480,1470,26,37,148,343,55,-217,0,0,-4,0,0,0,0,0,0,0,0,0,1,ARM,129,GPS_FIX_HOME|GPS_FIX|SMALL_ANGLE|FIXED_WING_LEGACY|ANTI_WINDUP|NAV_MOTOR_STOP_OR_IDLE|COMPASS_CALIBRATED|ACCELEROMETER_CALIBRATED|AIRMODE_ACTIVE|AIRPLANE|ALTITUDE_CONTROL|MOVE_FORWARD_ONLY|SET_REVERSIBLE_MOTORS_FORWARD,IDLE,1,1,128,341,0,0,0,0,0,1,253,244,-1250,-1250,-1250,-1250,-1250,-1250,-1250,-1250,1778576784,5
64,39311584,11,3,0,6,-3,1,0,0,0,0,0,19,8,0,1500,1498,1500,987,0,0,0,1050,12.610,573,-285,-1148,193,1023,-3,11,-2,-3,10,-2,-23,-46,1981,49,9850,-325,-136,1688,1000,1478,1470,26,37,148,343,56,-217,0,0,-5,0,0,0,0,0,0,0,0,0,1,ARM,129,GPS_FIX_HOME|GPS_FIX|SMALL_ANGLE|FIXED_WING_LEGACY|ANTI_WINDUP|NAV_MOTOR_STOP_OR_IDLE|COMPASS_CALIBRATED|ACCELEROMETER_CALIBRATED|AIRMODE_ACTIVE|AIRPLANE|ALTITUDE_CONTROL|MOVE_FORWARD_ONLY|SET_REVERSIBLE_MOTORS_FORWARD,IDLE,1,1,164,341,0,0,0,0,0,1,253,244,-1250,-1250,-1250,-1250,-1250,-1250,-1250,-1250,1778576784,5
96,39328129,11,3,0,7,-2,1,0,0,0,0,0,19,6,0,1500,1500,1500,987,0,0,0,1050,12.610,573,-285,-1148,193,1023,-4,9,-2,-4,8,-2,-70,-62,1975,54,9851,-332,-121,1685,1000,1477,1469,26,37,148,343,56,-217,0,0,-5,0,0,0,0,0,0,0,0,0,1,ARM,129,GPS_FIX_HOME|GPS_FIX|SMALL_ANGLE|FIXED_WING_LEGACY|ANTI_WINDUP|NAV_MOTOR_STOP_OR_IDLE|COMPASS_CALIBRATED|ACCELEROMETER_CALIBRATED|AIRMODE_ACTIVE|AIRPLANE|ALTITUDE_CONTROL|MOVE_FORWARD_ONLY|SET_REVERSIBLE_MOTORS_FORWARD,IDLE,1,1,128,341,0,0,0,0,0,1,253,244,-1250,-1250,-1250,-1250,-1250,-1250,-1250,-1250,1778576784,5
128,39345015,12,2,0,7,-1,1,0,0,0,0,0,19,5,0,1498,1500,1500,987,0,0,0,1050,12.610,573,-285,-1148,193,1023,-4,7,-2,-3,5,-2,-87,-72,1959,54,9851,-340,-109,1682,1000,1477,1469,26,37,148,343,56,-217,0,-1,-5,0,0,0,0,0,0,0,0,0,1,ARM,129,GPS_FIX_HOME|GPS_FIX|SMALL_ANGLE|FIXED_WING_LEGACY|ANTI_WINDUP|NAV_MOTOR_STOP_OR_IDLE|COMPASS_CALIBRATED|ACCELEROMETER_CALIBRATED|AIRMODE_ACTIVE|AIRPLANE|ALTITUDE_CONTROL|MOVE_FORWARD_ONLY|SET_REVERSIBLE_MOTORS_FORWARD,IDLE,1,1,128,341,0,0,0,0,0,1,253,244,-1250,-1250,-1250,-1250,-1250,-1250,-1250,-1250,1778576784,5
160,39361776,12,2,0,6,0,1,0,0,0,0,0,19,4,0,1498,1500,1500,987,0,0,0,1050,12.610,573,-285,-1148,193,1023,-2,4,-2,-1,3,-2,-90,-67,1941,52,9852,-345,-100,1679,1000,1478,1470,26,37,148,343,56,-217,0,-2,-5,0,0,0,0,0,0,0,0,0,1,ARM,129,GPS_FIX_HOME|GPS_FIX|SMALL_ANGLE|FIXED_WING_LEGACY|ANTI_WINDUP|NAV_MOTOR_STOP_OR_IDLE|COMPASS_CALIBRATED|ACCELEROMETER_CALIBRATED|AIRMODE_ACTIVE|AIRPLANE|ALTITUDE_CONTROL|MOVE_FORWARD_ONLY|SET_REVERSIBLE_MOTORS_FORWARD,IDLE,1,1,128,341,0,0,0,0,0,1,253,244,-1250,-1250,-1250,-1250,-1250,-1250,-1250,-1250,1778576784,5
192,39378705,12,1,0,5,0,1,0,0,0,0,0,19,3,0,1500,1498,1500,987,0,0,0,1050,12.610,581,-265,-1118,193,1023,0,2,-2,1,1,-2,-86,-65,1932,48,9852,-347,-94,1675,1000,1479,1471,26,37,148,343,56,-217,0,-3,-5,-1,0,0,0,0,0,0,0,0,1,ARM,129,GPS_FIX_HOME|GPS_FIX|SMALL_ANGLE|FIXED_WING_LEGACY|ANTI_WINDUP|NAV_MOTOR_STOP_OR_IDLE|COMPASS_CALIBRATED|ACCELEROMETER_CALIBRATED|AIRMODE_ACTIVE|AIRPLANE|ALTITUDE_CONTROL|MOVE_FORWARD_ONLY|SET_REVERSIBLE_MOTORS_FORWARD,IDLE,1,1,142,341,0,0,0,0,0,1,253,244,-1250,-1250,-1250,-1250,-1250,-1250,-1250,-1250,1778576784,5
224,39395513,12,1,0,5,0,1,0,0,0,0,0,19,3,0,1500,1500,1500,987,0,0,0,1050,12.610,581,-265,-1118,193,1023,1,0,-2,1,-1,-2,-63,-68,1937,45,9853,-346,-92,1671,1000,1480,1472,26,37,148,343,56,-217,0,-3,-5,-1,0,0,0,0,0,0,0,0,1,ARM,129,GPS_FIX_HOME|GPS_FIX|SMALL_ANGLE|FIXED_WING_LEGACY|ANTI_WINDUP|NAV_MOTOR_STOP_OR_IDLE|COMPASS_CALIBRATED|ACCELEROMETER_CALIBRATED|AIRMODE_ACTIVE|AIRPLANE|ALTITUDE_CONTROL|MOVE_FORWARD_ONLY|SET_REVERSIBLE_MOTORS_FORWARD,IDLE,1,1,157,341,0,0,0,0,0,1,253,244,-1250,-1250,-1250,-1250,-1250,-1250,-1250,-1250,1778576784,5
256,39412207,12,1,0,5,1,0,0,0,0,0,0,19,2,0,1500,1500,1500,987,0,0,0,1050,12.610,581,-265,-1118,193,1023,1,-2,-1,0,-3,0,-46,-79,1950,43,9853,-343,-93,1669,1000,1480,1472,26,37,148,342,56,-216,0,-3,-6,-1,0,0,0,0,0,0,0,0,1,ARM,129,GPS_FIX_HOME|GPS_FIX|SMALL_ANGLE|FIXED_WING_LEGACY|ANTI_WINDUP|NAV_MOTOR_STOP_OR_IDLE|COMPASS_CALIBRATED|ACCELEROMETER_CALIBRATED|AIRMODE_ACTIVE|AIRPLANE|ALTITUDE_CONTROL|MOVE_FORWARD_ONLY|SET_REVERSIBLE_MOTORS_FORWARD,IDLE,1,1,113,341,0,0,0,0,0,1,253,244,-1250,-1250,-1250,-1250,-1250,-1250,-1250,-1250,1778576784,5
288,39428886,12,1,0,6,2,0,0,0,0,0,0,19,2,0,1500,1500,1500,987,0,0,0,1050,12.610,581,-265,-1118,193,1023,-1,-4,1,-2,-5,2,-39,-91,1966,41,9853,-342,-98,1668,1000,1480,1470,26,37,148,342,56,-216,0,-4,-6,-2,0,0,0,0,0,0,0,0,1,ARM,129,GPS_FIX_HOME|GPS_FIX|SMALL_ANGLE|FIXED_WING_LEGACY|ANTI_WINDUP|NAV_MOTOR_STOP_OR_IDLE|COMPASS_CALIBRATED|ACCELEROMETER_CALIBRATED|AIRMODE_ACTIVE|AIRPLANE|ALTITUDE_CONTROL|MOVE_FORWARD_ONLY|SET_REVERSIBLE_MOTORS_FORWARD,IDLE,1,1,113,341,0,0,0,0,0,1,253,244,-1250,-1250,-1250,-1250,-1250,-1250,-1250,-1250,1778576784,5
320,39445578,12,1,0,7,3,-1,0,0,0,0,0,19,2,0,1500,1498,1500,987,0,0,0,1050,12.610,581,-265,-1118,193,1023,-3,-7,3,-4,-8,4,-29,-97,1969,39,9853,-343,-107,1671,1000,1479,1467,26,37,148,342,56,-216,0,-4,-6,-2,0,0,0,0,0,0,0,0,1,ARM,129,GPS_FIX_HOME|GPS_FIX|SMALL_ANGLE|FIXED_WING_LEGACY|ANTI_WINDUP|NAV_MOTOR_STOP_OR_IDLE|COMPASS_CALIBRATED|ACCELEROMETER_CALIBRATED|AIRMODE_ACTIVE|AIRPLANE|ALTITUDE_CONTROL|MOVE_FORWARD_ONLY|SET_REVERSIBLE_MOTORS_FORWARD,IDLE,1,1,113,341,0,0,0,0,0,1,253,244,-1250,-1250,-1250,-1250,-1250,-1250,-1250,-1250,1778576784,5
352,39462178,12,1,0,8,4,-3,0,0,0,0,0,19,3,0,1500,1500,1500,987,0,0,0,1050,12.610,581,-265,-1118,193,1023,-5,-9,5,-6,-10,6,-14,-101,1970,37,9852,-347,-119,1676,1000,1480,1464,26,37,148,342,56,-216,0,-4,-5,-2,0,0,0,0,0,0,0,0,1,ARM,129,GPS_FIX_HOME|GPS_FIX|SMALL_ANGLE|FIXED_WING_LEGACY|ANTI_WINDUP|NAV_MOTOR_STOP_OR_IDLE|COMPASS_CALIBRATED|ACCELEROMETER_CALIBRATED|AIRMODE_ACTIVE|AIRPLANE|ALTITUDE_CONTROL|MOVE_FORWARD_ONLY|SET_REVERSIBLE_MOTORS_FORWARD,IDLE,1,1,159,341,0,0,0,0,0,1,253,244,-1250,-1250,-1250,-1250,-1250,-1250,-1250,-1250,1778576784,5
384,39479206,12,1,0,8,5,-4,0,0,0,0,0,20,3,0,1500,1500,1500,987,0,0,0,1050,12.610,570,-270,-1131,193,1023,-6,-10,7,-6,-10,7,6,-98,1982,38,9850,-352,-134,1685,1000,1480,1462,26,37,148,342,56,-216,0,-5,-5,-3,0,0,0,0,0,0,0,0,1,ARM,129,GPS_FIX_HOME|GPS_FIX|SMALL_ANGLE|FIXED_WING_LEGACY|ANTI_WINDUP|NAV_MOTOR_STOP_OR_IDLE|COMPASS_CALIBRATED|ACCELEROMETER_CALIBRATED|AIRMODE_ACTIVE|AIRPLANE|ALTITUDE_CONTROL|MOVE_FORWARD_ONLY|SET_REVERSIBLE_MOTORS_FORWARD,IDLE,1,1,159,341,0,0,0,0,0,1,253,244,-1250,-1250,-1250,-1250,-1250,-1250,-1250,-1250,1778576784,5
416,39496169,12,2,0,9,5,-4,0,0,0,0,0,20,4,0,1500,1498,1500,987,0,0,0,1050,12.610,570,-270,-1131,184,1023,-6,-10,8,-6,-9,8,25,-89,2000,40,9848,-359,-150,1696,1000,1481,1461,26,37,148,342,56,-216,0,-5,-5,-3,0,0,0,0,0,0,0,0,1,ARM,129,GPS_FIX_HOME|GPS_FIX|SMALL_ANGLE|FIXED_WING_LEGACY|ANTI_WINDUP|NAV_MOTOR_STOP_OR_IDLE|COMPASS_CALIBRATED|ACCELEROMETER_CALIBRATED|AIRMODE_ACTIVE|AIRPLANE|ALTITUDE_CONTROL|MOVE_FORWARD_ONLY|SET_REVERSIBLE_MOTORS_FORWARD,IDLE,1,1,159,341,0,0,0,0,0,1,253,244,-1250,-1250,-1250,-1250,-1250,-1250,-1250,-1250,1778576784,5
448,39512809,12,2,0,9,5,-5,0,0,0,0,0,20,5,0,1500,1500,1500,987,0,0,0,1050,12.610,570,-270,-1131,184,1023,-6,-9,8,-6,-8,8,46,-96,2011,42,9845,-365,-165,1707,1000,1482,1460,26,37,148,342,56,-216,0,-4,-5,-3,0,0,0,0,0,0,0,0,1,ARM,129,GPS_FIX_HOME|GPS_FIX|SMALL_ANGLE|FIXED_WING_LEGACY|ANTI_WINDUP|NAV_MOTOR_STOP_OR_IDLE|COMPASS_CALIBRATED|ACCELEROMETER_CALIBRATED|AIRMODE_ACTIVE|AIRPLANE|ALTITUDE_CONTROL|MOVE_FORWARD_ONLY|SET_REVERSIBLE_MOTORS_FORWARD,IDLE,1,1,137,341,0,0,0,0,0,1,253,244,-1250,-1250,-1250,-1250,-1250,-1250,-1250,-1250,1778576784,5
480,39529680,13,2,0,8,4,-5,0,0,0,0,0,21,6,0,1500,1500,1500,987,0,0,0,1050,12.610,570,-270,-1131,184,1023,-6,-7,8,-6,-6,8,61,-126,2014,44,9843,-372,-176,1718,1000,1481,1459,26,37,148,341,57,-216,0,-4,-6,-3,0,0,0,0,0,0,0,0,1,ARM,129,GPS_FIX_HOME|GPS_FIX|SMALL_ANGLE|FIXED_WING_LEGACY|ANTI_WINDUP|NAV_MOTOR_STOP_OR_IDLE|COMPASS_CALIBRATED|ACCELEROMETER_CALIBRATED|AIRMODE_ACTIVE|AIRPLANE|ALTITUDE_CONTROL|MOVE_FORWARD_ONLY|SET_REVERSIBLE_MOTORS_FORWARD,IDLE,1,1,137,341,0,0,0,0,0,1,253,244,-1250,-1250,-1250,-1250,-1250,-1250,-1250,-1250,1778576784,5
512,39546341,13,3,0,9,4,-5,0,0,0,0,0,21,7,0,1500,1500,1500,987,0,0,0,1050,12.610,570,-270,-1131,184,1023,-6,-6,8,-6,-6,8,77,-157,1995,47,9840,-378,-185,1729,1000,1481,1459,26,37,148,341,57,-216,0,-4,-6,-3,0,0,0,0,0,0,0,0,1,ARM,129,GPS_FIX_HOME|GPS_FIX|SMALL_ANGLE|FIXED_WING_LEGACY|ANTI_WINDUP|NAV_MOTOR_STOP_OR_IDLE|COMPASS_CALIBRATED|ACCELEROMETER_CALIBRATED|AIRMODE_ACTIVE|AIRPLANE|ALTITUDE_CONTROL|MOVE_FORWARD_ONLY|SET_REVERSIBLE_MOTORS_FORWARD,IDLE,1,1,171,341,0,0,0,0,0,1,253,244,-1250,-1250,-1250,-1250,-1250,-1250,-1250,-1250,1778576784,5
544,39563540,13,3,0,9,4,-5,0,0,0,0,0,22,8,0,1500,1500,1500,987,0,0,0,1050,12.610,570,-270,-1131,184,1023,-6,-7,8,-6,-7,8,93,-174,1972,49,9838,-386,-195,1741,1000,1482,1456,26,37,148,341,57,-216,0,-4,-6,-3,0,0,0,0,0,0,0,0,1,ARM,129,GPS_FIX_HOME|GPS_FIX|SMALL_ANGLE|FIXED_WING_LEGACY|ANTI_WINDUP|NAV_MOTOR_STOP_OR_IDLE|COMPASS_CALIBRATED|ACCELEROMETER_CALIBRATED|AIRMODE_ACTIVE|AIRPLANE|ALTITUDE_CONTROL|MOVE_FORWARD_ONLY|SET_REVERSIBLE_MOTORS_FORWARD,IDLE,1,1,171,341,0,0,0,0,0,1,253,244,-1250,-1250,-1250,-1250,-1250,-1250,-1250,-1250,1778576784,5
576,39580499,14,3,0,9,5,-5,0,0,0,0,0,22,8,0,1500,1500,1500,987,0,0,0,1050,12.610,565,-281,-1126,184,1023,-5,-8,8,-5,-8,8,116,-179,1969,48,9835,-392,-206,1753,1000,1483,1455,26,37,148,341,57,-216,0,-4,-6,-3,0,0,0,0,0,0,0,0,1,ARM,129,GPS_FIX_HOME|GPS_FIX|SMALL_ANGLE|FIXED_WING_LEGACY|ANTI_WINDUP|NAV_MOTOR_STOP_OR_IDLE|COMPASS_CALIBRATED|ACCELEROMETER_CALIBRATED|AIRMODE_ACTIVE|AIRPLANE|ALTITUDE_CONTROL|MOVE_FORWARD_ONLY|SET_REVERSIBLE_MOTORS_FORWARD,IDLE,1,1,118,341,0,0,0,0,0,1,253,244,-1250,-1250,-1250,-1250,-1250,-1250,-1250,-1250,1778576784,5
608,39597372,14,4,0,9,5,-4,0,0,0,0,0,23,9,0,1500,1500,1500,987,0,0,0,1050,12.610,565,-281,-1126,193,1023,-5,-7,8,-5,-7,7,133,-171,1982,47,9833,-397,-218,1764,1000,1483,1453,26,37,148,341,57,-216,0,-4,-6,-3,0,0,0,0,0,0,0,0,1,ARM,129,GPS_FIX_HOME|GPS_FIX|SMALL_ANGLE|FIXED_WING_LEGACY|ANTI_WINDUP|NAV_MOTOR_STOP_OR_IDLE|COMPASS_CALIBRATED|ACCELEROMETER_CALIBRATED|AIRMODE_ACTIVE|AIRPLANE|ALTITUDE_CONTROL|MOVE_FORWARD_ONLY|SET_REVERSIBLE_MOTORS_FORWARD,IDLE,1,1,118,341,0,0,0,0,0,1,253,244,-1250,-1250,-1250,-1250,-1250,-1250,-1250,-1250,1778576784,5
640,39614302,14,4,0,9,4,-4,0,0,0,0,0,23,10,0,1500,1500,1500,987,0,0,0,1050,12.610,565,-281,-1126,193,1023,-5,-6,7,-5,-4,6,141,-169,2009,46,9830,-403,-228,1774,1000,1483,1453,26,37,148,341,57,-216,0,-3,-5,-3,0,0,0,0,0,0,0,0,1,ARM,129,GPS_FIX_HOME|GPS_FIX|SMALL_ANGLE|FIXED_WING_LEGACY|ANTI_WINDUP|NAV_MOTOR_STOP_OR_IDLE|COMPASS_CALIBRATED|ACCELEROMETER_CALIBRATED|AIRMODE_ACTIVE|AIRPLANE|ALTITUDE_CONTROL|MOVE_FORWARD_ONLY|SET_REVERSIBLE_MOTORS_FORWARD,IDLE,1,1,133,341,0,0,0,0,0,1,253,244,-1250,-1250,-1250,-1250,-1250,-1250,-1250,-1250,1778576784,5
672,39631327,14,4,0,9,3,-3,0,0,0,0,0,23,11,0,1500,1500,1500,987,0,0,0,1050,12.610,565,-281,-1126,193,1023,-5,-3,6,-6,-3,5,135,-177,2025,44,9828,-409,-236,1783,1000,1481,1453,26,37,148,341,57,-216,0,-2,-6,-3,0,0,0,0,0,0,0,0,1,ARM,129,GPS_FIX_HOME|GPS_FIX|SMALL_ANGLE|FIXED_WING_LEGACY|ANTI_WINDUP|NAV_MOTOR_STOP_OR_IDLE|COMPASS_CALIBRATED|ACCELEROMETER_CALIBRATED|AIRMODE_ACTIVE|AIRPLANE|ALTITUDE_CONTROL|MOVE_FORWARD_ONLY|SET_REVERSIBLE_MOTORS_FORWARD,IDLE,1,1,183,341,0,0,0,0,0,1,253,244,-1250,-1250,-1250,-1250,-1250,-1250,-1250,-1250,1778576784,5
704,39648110,15,5,0,9,3,-3,0,0,0,0,0,24,11,0,1500,1500,1500,987,0,0,0,1050,12.610,565,-281,-1126,193,1023,-6,-3,5,-6,-3,5,143,-175,2029,44,9827,-416,-241,1791,1000,1481,1451,26,37,148,340,57,-216,0,-2,-6,-3,0,0,0,0,0,0,0,0,1,ARM,129,GPS_FIX_HOME|GPS_FIX|SMALL_ANGLE|FIXED_WING_LEGACY|ANTI_WINDUP|NAV_MOTOR_STOP_OR_IDLE|COMPASS_CALIBRATED|ACCELEROMETER_CALIBRATED|AIRMODE_ACTIVE|AIRPLANE|ALTITUDE_CONTROL|MOVE_FORWARD_ONLY|SET_REVERSIBLE_MOTORS_FORWARD,IDLE,1,1,183,341,0,0,0,0,0,1,253,244,-1250,-1250,-1250,-1250,-1250,-1250,-1250,-1250,1778576784,5
736,39664869,15,5,0,10,3,-2,0,0,0,0,0,24,11,0,1500,1500,1500,987,0,0,0,1050,12.610,565,-281,-1126,193,1023,-7,-3,4,-7,-3,4,152,-195,2023,42,9825,-424,-247,1797,1000,1480,1450,26,37,148,340,57,-216,0,-2,-5,-2,0,0,0,0,0,0,0,0,1,ARM,129,GPS_FIX_HOME|GPS_FIX|SMALL_ANGLE|FIXED_WING_LEGACY|ANTI_WINDUP|NAV_MOTOR_STOP_OR_IDLE|COMPASS_CALIBRATED|ACCELEROMETER_CALIBRATED|AIRMODE_ACTIVE|AIRPLANE|ALTITUDE_CONTROL|MOVE_FORWARD_ONLY|SET_REVERSIBLE_MOTORS_FORWARD,IDLE,1,1,137,341,0,0,0,0,0,1,255,244,-1250,-1250,-1250,-1250,-1250,-1250,-1250,-1250,1778576784,5
768,39681854,15,5,0,10,3,-2,0,0,0,0,0,25,12,0,1500,1498,1500,987,0,0,0,1050,12.610,557,-263,-1156,193,1023,-6,-2,4,-6,-2,4,140,-197,2017,39,9823,-433,-252,1803,1000,1481,1449,26,37,148,340,57,-216,0,-1,-5,-2,0,0,0,0,0,0,0,0,1,ARM,129,GPS_FIX_HOME|GPS_FIX|SMALL_ANGLE|FIXED_WING_LEGACY|ANTI_WINDUP|NAV_MOTOR_STOP_OR_IDLE|COMPASS_CALIBRATED|ACCELEROMETER_CALIBRATED|AIRMODE_ACTIVE|AIRPLANE|ALTITUDE_CONTROL|MOVE_FORWARD_ONLY|SET_REVERSIBLE_MOTORS_FORWARD,IDLE,1,1,118,341,0,0,0,0,0,1,255,244,-1250,-1250,-1250,-1250,-1250,-1250,-1250,-1250,1778576784,5
800,39698935,16,5,0,10,3,-2,0,0,0,0,0,25,12,0,1500,1500,1500,987,0,0,0,1050,12.610,557,-263,-1156,193,1023,-6,-2,4,-5,-3,4,136,-210,2007,39,9822,-442,-257,1808,1000,1480,1448,26,37,148,340,57,-216,0,-1,-5,-2,0,0,0,0,0,0,0,0,1,ARM,129,GPS_FIX_HOME|GPS_FIX|SMALL_ANGLE|FIXED_WING_LEGACY|ANTI_WINDUP|NAV_MOTOR_STOP_OR_IDLE|COMPASS_CALIBRATED|ACCELEROMETER_CALIBRATED|AIRMODE_ACTIVE|AIRPLANE|ALTITUDE_CONTROL|MOVE_FORWARD_ONLY|SET_REVERSIBLE_MOTORS_FORWARD,IDLE,1,1,118,341,0,0,0,0,0,1,255,244,-1250,-1250,-1250,-1250,-1250,-1250,-1250,-1250,1778576784,5
832,39715641,16,5,0,9,4,-2,0,0,0,0,0,26,13,0,1500,1500,1500,987,0,0,0,1050,12.620,557,-263,-1156,193,1023,-5,-3,4,-4,-4,4,140,-235,1990,40,9821,-449,-263,1813,1000,1481,1447,26,37,148,340,57,-216,0,-1,-5,-2,0,0,0,0,0,0,0,0,1,ARM,129,GPS_FIX_HOME|GPS_FIX|SMALL_ANGLE|FIXED_WING_LEGACY|ANTI_WINDUP|NAV_MOTOR_STOP_OR_IDLE|COMPASS_CALIBRATED|ACCELEROMETER_CALIBRATED|AIRMODE_ACTIVE|AIRPLANE|ALTITUDE_CONTROL|MOVE_FORWARD_ONLY|SET_REVERSIBLE_MOTORS_FORWARD,IDLE,1,1,158,341,0,0,0,0,0,1,255,244,-1250,-1250,-1250,-1250,-1250,-1250,-1250,-1250,1778576784,5
864,39732274,16,5,0,9,5,-2,0,0,0,0,0,26,13,0,1498,1500,1500,987,0,0,0,1050,12.610,557,-263,-1156,193,1023,-4,-5,4,-2,-6,4,135,-237,1973,40,9819,-454,-271,1819,1000,1482,1446,26,37,148,340,58,-216,0,0,-5,-1,0,0,0,0,0,0,0,0,1,ARM,129,GPS_FIX_HOME|GPS_FIX|SMALL_ANGLE|FIXED_WING_LEGACY|ANTI_WINDUP|NAV_MOTOR_STOP_OR_IDLE|COMPASS_CALIBRATED|ACCELEROMETER_CALIBRATED|AIRMODE_ACTIVE|AIRPLANE|ALTITUDE_CONTROL|MOVE_FORWARD_ONLY|SET_REVERSIBLE_MOTORS_FORWARD,IDLE,1,1,158,341,0,0,0,0,0,1,255,244,-1250,-1250,-1250,-1250,-1250,-1250,-1250,-1250,1778576784,5
896,39749121,16,6,0,8,5,-2,0,0,0,0,0,27,13,0,1500,1500,1500,987,0,0,0,1050,12.610,557,-263,-1156,193,1023,-2,-7,4,-2,-8,4,118,-233,1968,38,9818,-457,-282,1824,1000,1485,1445,26,37,148,340,58,-216,0,0,-4,-2,0,0,0,0,0,0,0,0,1,ARM,129,GPS_FIX_HOME|GPS_FIX|SMALL_ANGLE|FIXED_WING_LEGACY|ANTI_WINDUP|NAV_MOTOR_STOP_OR_IDLE|COMPASS_CALIBRATED|ACCELEROMETER_CALIBRATED|AIRMODE_ACTIVE|AIRPLANE|ALTITUDE_CONTROL|MOVE_FORWARD_ONLY|SET_REVERSIBLE_MOTORS_FORWARD,IDLE,1,1,144,341,0,0,0,0,0,1,255,244,-1250,-1250,-1250,-1250,-1250,-1250,-1250,-1250,1778576784,5
928,39766045,17,6,0,8,6,-2,0,0,0,0,0,27,14,0,1500,1498,1500,987,0,0,0,1050,12.610,557,-263,-1156,193,1023,-2,-8,4,-2,-9,3,114,-227,1985,37,9816,-458,-294,1830,1000,1485,1443,26,37,148,339,58,-215,0,0,-4,-2,0,0,0,0,0,0,0,0,1,ARM,129,GPS_FIX_HOME|GPS_FIX|SMALL_ANGLE|FIXED_WING_LEGACY|ANTI_WINDUP|NAV_MOTOR_STOP_OR_IDLE|COMPASS_CALIBRATED|ACCELEROMETER_CALIBRATED|AIRMODE_ACTIVE|AIRPLANE|ALTITUDE_CONTROL|MOVE_FORWARD_ONLY|SET_REVERSIBLE_MOTORS_FORWARD,IDLE,1,1,117,341,0,0,0,0,0,1,255,244,-1250,-1250,-1250,-1250,-1250,-1250,-1250,-1250,1778576784,5
960,39783119,17,6,0,9,7,-2,0,0,0,0,0,27,15,0,1500,1500,1500,987,0,0,0,1050,12.610,544,-257,-1143,184,1023,-3,-9,3,-4,-9,3,111,-220,2020,39,9815,-459,-308,1835,1000,1485,1441,26,37,148,339,58,-215,0,0,-4,-2,0,0,0,0,0,0,0,0,1,ARM,129,GPS_FIX_HOME|GPS_FIX|SMALL_ANGLE|FIXED_WING_LEGACY|ANTI_WINDUP|NAV_MOTOR_STOP_OR_IDLE|COMPASS_CALIBRATED|ACCELEROMETER_CALIBRATED|AIRMODE_ACTIVE|AIRPLANE|ALTITUDE_CONTROL|MOVE_FORWARD_ONLY|SET_REVERSIBLE_MOTORS_FORWARD,IDLE,1,1,117,341,0,0,0,0,0,1,255,244,-1250,-1250,-1250,-1250,-1250,-1250,-1250,-1250,1778576784,5
992,39799749,17,7,0,10,7,-1,0,0,0,0,0,28,16,0,1500,1497,1500,987,0,0,0,1050,12.610,544,-257,-1143,184,1023,-5,-8,3,-6,-8,3,122,-211,2047,40,9813,-463,-322,1839,1000,1485,1439,26,37,148,339,58,-215,0,0,-4,-2,0,0,0,0,0,0,0,0,1,ARM,129,GPS_FIX_HOME|GPS_FIX|SMALL_ANGLE|FIXED_WING_LEGACY|ANTI_WINDUP|NAV_MOTOR_STOP_OR_IDLE|COMPASS_CALIBRATED|ACCELEROMETER_CALIBRATED|AIRMODE_ACTIVE|AIRPLANE|ALTITUDE_CONTROL|MOVE_FORWARD_ONLY|SET_REVERSIBLE_MOTORS_FORWARD,IDLE,1,1,146,341,0,0,0,0,0,1,255,244,-1250,-1250,-1250,-1250,-1250,-1250,-1250,-1250,1778576784,5
1024,39816824,17,7,0,11,6,-1,0,0,0,0,0,28,17,0,1500,1500,1500,987,0,0,0,1050,12.610,544,-257,-1143,193,1023,-7,-7,3,-8,-7,2,129,-214,2056,39,9812,-469,-336,1843,1000,1483,1437,26,37,148,339,58,-215,0,0,-4,-1,0,0,0,0,0,0,0,0,1,ARM,129,GPS_FIX_HOME|GPS_FIX|SMALL_ANGLE|FIXED_WING_LEGACY|ANTI_WINDUP|NAV_MOTOR_STOP_OR_IDLE|COMPASS_CALIBRATED|ACCELEROMETER_CALIBRATED|AIRMODE_ACTIVE|AIRPLANE|ALTITUDE_CONTROL|MOVE_FORWARD_ONLY|SET_REVERSIBLE_MOTORS_FORWARD,IDLE,1,1,146,341,0,0,0,0,0,1,255,244,-1250,-1250,-1250,-1250,-1250,-1250,-1250,-1250,1778576784,5
1056,39833577,17,7,0,12,6,-1,0,0,0,0,0,28,17,0,1500,1500,1500,987,0,0,0,1050,12.610,544,-257,-1143,193,1023,-8,-6,2,-8,-6,1,130,-224,2052,37,9810,-479,-348,1846,1000,1483,1435,26,37,148,339,58,-215,0,0,-4,-1,0,0,0,0,0,0,0,0,1,ARM,129,GPS_FIX_HOME|GPS_FIX|SMALL_ANGLE|FIXED_WING_LEGACY|ANTI_WINDUP|NAV_MOTOR_STOP_OR_IDLE|COMPASS_CALIBRATED|ACCELEROMETER_CALIBRATED|AIRMODE_ACTIVE|AIRPLANE|ALTITUDE_CONTROL|MOVE_FORWARD_ONLY|SET_REVERSIBLE_MOTORS_FORWARD,IDLE,1,1,115,341,0,0,0,0,0,1,255,244,-1250,-1250,-1250,-1250,-1250,-1250,-1250,-1250,1778576784,5
1088,39850376,18,8,0,11,6,0,0,0,0,0,0,29,18,0,1500,1498,1500,987,0,0,0,1050,12.610,544,-257,-1143,193,1023,-8,-5,0,-6,-5,-1,130,-225,2047,36,9809,-489,-359,1847,1000,1483,1435,26,37,148,339,59,-215,0,1,-4,0,0,0,0,0,0,0,0,0,1,ARM,129,GPS_FIX_HOME|GPS_FIX|SMALL_ANGLE|FIXED_WING_LEGACY|ANTI_WINDUP|NAV_MOTOR_STOP_OR_IDLE|COMPASS_CALIBRATED|ACCELEROMETER_CALIBRATED|AIRMODE_ACTIVE|AIRPLANE|ALTITUDE_CONTROL|MOVE_FORWARD_ONLY|SET_REVERSIBLE_MOTORS_FORWARD,IDLE,1,1,112,341,0,0,0,0,0,1,254,245,-1250,-1250,-1250,-1250,-1250,-1250,-1250,-1250,1778576784,5
1120,39867396,18,8,0,11,5,1,0,0,0,0,0,30,19,0,1500,1498,1500,987,0,0,0,1050,12.610,544,-257,-1143,193,1023,-5,-4,-2,-4,-3,-3,112,-226,2052,36,9809,-497,-367,1846,1000,1483,1435,26,37,148,339,59,-215,0,1,-4,0,0,0,0,0,0,0,0,0,1,ARM,129,GPS_FIX_HOME|GPS_FIX|SMALL_ANGLE|FIXED_WING_LEGACY|ANTI_WINDUP|NAV_MOTOR_STOP_OR_IDLE|COMPASS_CALIBRATED|ACCELEROMETER_CALIBRATED|AIRMODE_ACTIVE|AIRPLANE|ALTITUDE_CONTROL|MOVE_FORWARD_ONLY|SET_REVERSIBLE_MOTORS_FORWARD,IDLE,1,1,114,341,0,0,0,0,0,1,254,245,-1250,-1250,-1250,-1250,-1250,-1250,-1250,-1250,1778576784,5
1152,39884609,18,8,0,9,4,2,0,0,0,0,0,30,20,0,1500,1498,1500,987,0,0,0,1050,12.610,528,-259,-1169,193,1023,-2,-2,-4,0,-1,-6,85,-222,2056,36,9809,-501,-372,1841,1000,1485,1437,26,37,148,338,59,-215,0,1,-4,0,0,0,0,0,0,0,0,0,1,ARM,129,GPS_FIX_HOME|GPS_FIX|SMALL_ANGLE|FIXED_WING_LEGACY|ANTI_WINDUP|NAV_MOTOR_STOP_OR_IDLE|COMPASS_CALIBRATED|ACCELEROMETER_CALIBRATED|AIRMODE_ACTIVE|AIRPLANE|ALTITUDE_CONTROL|MOVE_FORWARD_ONLY|SET_REVERSIBLE_MOTORS_FORWARD,IDLE,1,1,147,341,0,0,0,0,0,1,254,245,-1250,-1250,-1250,-1250,-1250,-1250,-1250,-1250,1778576784,5
1184,39901495,19,9,0,8,3,4,0,0,0,0,0,30,20,0,1500,1498,1500,987,0,0,0,1050,12.610,528,-259,-1169,193,1023,1,0,-7,2,1,-8,81,-227,2046,33,9811,-501,-373,1832,1000,1486,1438,26,37,148,338,59,-215,0,1,-4,0,0,0,0,0,0,0,0,0,1,ARM,129,GPS_FIX_HOME|GPS_FIX|SMALL_ANGLE|FIXED_WING_LEGACY|ANTI_WINDUP|NAV_MOTOR_STOP_OR_IDLE|COMPASS_CALIBRATED|ACCELEROMETER_CALIBRATED|AIRMODE_ACTIVE|AIRPLANE|ALTITUDE_CONTROL|MOVE_FORWARD_ONLY|SET_REVERSIBLE_MOTORS_FORWARD,IDLE,1,1,145,341,0,0,0,0,0,1,254,245,-1250,-1250,-1250,-1250,-1250,-1250,-1250,-1250,1778576784,5
1216,39918558,19,9,0,7,3,5,0,0,0,0,0,31,20,0,1498,1500,1500,987,0,0,0,1050,12.610,528,-259,-1169,193,1023,3,1,-8,4,2,-9,84,-233,2038,31,9813,-498,-372,1821,1000,1487,1439,26,37,148,338,59,-215,0,0,-4,1,0,0,0,0,0,0,0,0,1,ARM,129,GPS_FIX_HOME|GPS_FIX|SMALL_ANGLE|FIXED_WING_LEGACY|ANTI_WINDUP|NAV_MOTOR_STOP_OR_IDLE|COMPASS_CALIBRATED|ACCELEROMETER_CALIBRATED|AIRMODE_ACTIVE|AIRPLANE|ALTITUDE_CONTROL|MOVE_FORWARD_ONLY|SET_REVERSIBLE_MOTORS_FORWARD,IDLE,1,1,145,341,0,0,0,0,0,1,254,245,-1250,-1250,-1250,-1250,-1250,-1250,-1250,-1250,1778576784,5
1248,39935209,19,9,0,6,2,5,0,0,0,0,0,31,21,0,1500,1500,1500,987,0,0,0,1050,12.610,528,-259,-1169,193,1023,4,3,-9,4,3,-9,92,-227,2028,30,9816,-492,-369,1809,1000,1486,1440,26,37,148,338,59,-215,0,0,-4,1,0,0,0,0,0,0,0,0,1,ARM,129,GPS_FIX_HOME|GPS_FIX|SMALL_ANGLE|FIXED_WING_LEGACY|ANTI_WINDUP|NAV_MOTOR_STOP_OR_IDLE|COMPASS_CALIBRATED|ACCELEROMETER_CALIBRATED|AIRMODE_ACTIVE|AIRPLANE|ALTITUDE_CONTROL|MOVE_FORWARD_ONLY|SET_REVERSIBLE_MOTORS_FORWARD,IDLE,1,1,145,341,0,0,0,0,0,1,254,245,-1250,-1250,-1250,-1250,-1250,-1250,-1250,-1250,1778576784,5
1280,39951824,19,9,0,7,2,5,0,0,0,0,0,30,21,0,1500,1497,1500,987,0,0,0,1050,12.610,528,-259,-1169,184,1023,4,3,-9,3,4,-8,95,-218,2022,28,9819,-486,-365,1796,1000,1486,1440,26,37,148,338,59,-215,0,0,-3,2,0,0,0,0,0,0,0,0,1,ARM,129,GPS_FIX_HOME|GPS_FIX|SMALL_ANGLE|FIXED_WING_LEGACY|ANTI_WINDUP|NAV_MOTOR_STOP_OR_IDLE|COMPASS_CALIBRATED|ACCELEROMETER_CALIBRATED|AIRMODE_ACTIVE|AIRPLANE|ALTITUDE_CONTROL|MOVE_FORWARD_ONLY|SET_REVERSIBLE_MOTORS_FORWARD,IDLE,1,1,147,341,0,0,0,0,0,1,254,245,-1250,-1250,-1250,-1250,-1250,-1250,-1250,-1250,1778576784,5
1312,39968595,18,9,0,7,2,4,0,0,0,0,0,30,21,0,1500,1496,1500,987,0,0,0,1050,12.610,528,-259,-1169,184,1023,3,4,-8,2,4,-7,101,-216,2020,26,9821,-482,-360,1784,1000,1485,1439,26,37,148,338,60,-215,0,0,-3,2,0,0,0,0,0,0,0,0,1,ARM,129,GPS_FIX_HOME|GPS_FIX|SMALL_ANGLE|FIXED_WING_LEGACY|ANTI_WINDUP|NAV_MOTOR_STOP_OR_IDLE|COMPASS_CALIBRATED|ACCELEROMETER_CALIBRATED|AIRMODE_ACTIVE|AIRPLANE|ALTITUDE_CONTROL|MOVE_FORWARD_ONLY|SET_REVERSIBLE_MOTORS_FORWARD,IDLE,1,1,158,341,0,0,0,0,0,1,254,245,-1250,-1250,-1250,-1250,-1250,-1250,-1250,-1250,1778576784,5
1344,39985797,18,9,0,7,2,4,0,0,0,0,0,30,20,0,1500,1496,1500,987,0,0,0,1050,12.610,523,-253,-1154,184,1023,2,4,-7,2,4,-7,102,-208,2019,26,9824,-479,-355,1773,1000,1485,1439,26,37,148,338,60,-215,0,1,-3,2,0,0,0,0,0,0,0,0,1,ARM,129,GPS_FIX_HOME|GPS_FIX|SMALL_ANGLE|FIXED_WING_LEGACY|ANTI_WINDUP|NAV_MOTOR_STOP_OR_IDLE|COMPASS_CALIBRATED|ACCELEROMETER_CALIBRATED|AIRMODE_ACTIVE|AIRPLANE|ALTITUDE_CONTROL|MOVE_FORWARD_ONLY|SET_REVERSIBLE_MOTORS_FORWARD,IDLE,1,1,158,341,0,0,0,0,0,1,254,245,-1250,-1250,-1250,-1250,-1250,-1250,-1250,-1250,1778576784,5
1376,40002446,18,9,0,7,2,4,0,0,0,0,0,30,20,0,1500,1496,1500,987,0,0,0,1050,12.610,523,-253,-1154,184,1023,2,4,-7,2,3,-7,94,-197,2012,25,9826,-477,-350,1763,1000,1484,1440,26,37,148,338,60,-215,0,1,-3,2,0,0,0,0,0,0,0,0,1,ARM,129,GPS_FIX_HOME|GPS_FIX|SMALL_ANGLE|FIXED_WING_LEGACY|ANTI_WINDUP|NAV_MOTOR_STOP_OR_IDLE|COMPASS_CALIBRATED|ACCELEROMETER_CALIBRATED|AIRMODE_ACTIVE|AIRPLANE|ALTITUDE_CONTROL|MOVE_FORWARD_ONLY|SET_REVERSIBLE_MOTORS_FORWARD,IDLE,1,1,127,341,0,0,0,0,0,1,254,245,-1250,-1250,-1250,-1250,-1250,-1250,-1250,-1250,1778576784,5
1408,40019176,18,9,0,7,2,4,0,0,0,0,0,29,20,0,1498,1491,1500,987,0,0,0,1050,12.610,523,-253,-1154,184,1023,2,4,-7,3,3,-7,90,-195,2001,25,9828,-475,-345,1753,1000,1485,1441,26,37,148,337,60,-215,0,1,-3,2,0,0,0,0,0,0,0,0,1,ARM,129,GPS_FIX_HOME|GPS_FIX|SMALL_ANGLE|FIXED_WING_LEGACY|ANTI_WINDUP|NAV_MOTOR_STOP_OR_IDLE|COMPASS_CALIBRATED|ACCELEROMETER_CALIBRATED|AIRMODE_ACTIVE|AIRPLANE|ALTITUDE_CONTROL|MOVE_FORWARD_ONLY|SET_REVERSIBLE_MOTORS_FORWARD,IDLE,1,1,127,341,0,0,0,0,0,1,254,245,-1250,-1250,-1250,-1250,-1250,-1250,-1250,-1250,1778576784,5
1440,40035998,18,8,0,7,2,4,0,0,0,0,0,29,19,0,1500,1474,1500,987,0,0,0,1050,12.610,523,-253,-1154,184,1023,3,3,-7,3,3,-7,80,-199,1985,26,9830,-472,-337,1744,1000,1486,1442,26,37,148,337,60,-214,0,1,-3,2,0,0,0,0,0,0,0,0,1,ARM,129,GPS_FIX_HOME|GPS_FIX|SMALL_ANGLE|FIXED_WING_LEGACY|NAV_MOTOR_STOP_OR_IDLE|COMPASS_CALIBRATED|ACCELEROMETER_CALIBRATED|AIRMODE_ACTIVE|AIRPLANE|ALTITUDE_CONTROL|MOVE_FORWARD_ONLY|SET_REVERSIBLE_MOTORS_FORWARD,IDLE,1,1,144,341,0,0,0,0,0,1,254,245,-1250,-1250,-1250,-1250,-1250,-1250,-1250,-1250,1778576784,5
1472,40053091,18,8,0,6,2,4,0,0,0,0,0,29,19,0,1500,1433,1500,987,0,0,0,1050,12.610,523,-253,-1154,184,1023,3,3,-6,4,2,-6,76,-202,1969,27,9832,-468,-331,1734,1000,1486,1442,26,37,148,337,60,-214,0,1,-3,2,0,0,0,0,0,0,0,0,1,ARM,129,GPS_FIX_HOME|GPS_FIX|SMALL_ANGLE|FIXED_WING_LEGACY|NAV_MOTOR_STOP_OR_IDLE|COMPASS_CALIBRATED|ACCELEROMETER_CALIBRATED|AIRMODE_ACTIVE|AIRPLANE|ALTITUDE_CONTROL|MOVE_FORWARD_ONLY|SET_REVERSIBLE_MOTORS_FORWARD,IDLE,1,1,189,341,0,0,0,0,0,1,254,245,-1250,-1250,-1250,-1250,-1250,-1250,-1250,-1250,1778576784,5
1504,40070165,18,8,0,6,2,3,0,0,0,0,0,29,19,0,1500,1390,1500,987,0,0,0,1050,12.610,523,-253,-1154,184,1023,3,2,-6,3,1,-5,83,-197,1961,26,9834,-463,-325,1725,1000,1487,1443,26,37,148,337,61,-214,0,1,-3,2,0,0,0,0,0,0,0,0,1,ARM,129,GPS_FIX_HOME|GPS_FIX|SMALL_ANGLE|FIXED_WING_LEGACY|NAV_MOTOR_STOP_OR_IDLE|COMPASS_CALIBRATED|ACCELEROMETER_CALIBRATED|AIRMODE_ACTIVE|AIRPLANE|ALTITUDE_CONTROL|MOVE_FORWARD_ONLY|SET_REVERSIBLE_MOTORS_FORWARD,IDLE,1,1,189,341,0,0,0,0,0,1,254,245,-1250,-1250,-1250,-1250,-1250,-1250,-1250,-1250,1778576784,5
1536,40087194,17,0,0,6,0,3,0,0,0,0,0,28,0,0,1500,1328,1500,987,0,-140,0,1050,12.610,538,-263,-1154,184,1023,3,1,-5,3,1,-4,89,-193,1959,25,9836,-459,-322,1717,1000,1464,1466,1,37,148,337,61,-214,0,1,-3,2,0,0,0,0,0,0,0,0,1,ARM,1,GPS_FIX_HOME|GPS_FIX|SMALL_ANGLE|FIXED_WING_LEGACY|COMPASS_CALIBRATED|ACCELEROMETER_CALIBRATED|AIRMODE_ACTIVE|AIRPLANE|ALTITUDE_CONTROL|MOVE_FORWARD_ONLY|SET_REVERSIBLE_MOTORS_FORWARD,IDLE,1,1,118,341,0,0,0,0,0,1,254,245,-1250,-1250,-1250,-1250,-1250,-1250,-1250,-1250,1778576784,5
1568,40103885,0,-43,0,-1,-2,2,0,0,0,0,0,0,-98,0,1500,1282,1500,987,0,-181,0,1050,12.620,538,-263,-1154,184,1023,2,1,-4,2,0,-4,88,-194,1961,23,9837,-455,-319,1711,1000,1400,1600,1,37,148,337,61,-214,0,1,-3,2,0,0,0,0,0,0,0,0,1,ARM,0,GPS_FIX_HOME|GPS_FIX|SMALL_ANGLE|FIXED_WING_LEGACY|COMPASS_CALIBRATED|ACCELEROMETER_CALIBRATED|AIRMODE_ACTIVE|AIRPLANE|ALTITUDE_CONTROL|MOVE_FORWARD_ONLY|SET_REVERSIBLE_MOTORS_FORWARD,IDLE,1,1,118,341,0,0,0,0,0,1,254,245,-1250,-1250,-1250,-1250,-1250,-1250,-1250,-1250,1778576784,5
1600,40120599,0,-58,0,0,0,2,0,0,0,0,0,0,-132,0,1500,1215,1500,987,0,-245,0,1050,12.620,538,-263,-1154,184,1023,2,-1,-3,0,-1,-3,81,-193,1946,79,9838,-452,-319,1705,1000,1367,1633,1,37,148,337,61,-214,0,1,-3,1,0,0,0,0,0,0,0,0,1,ARM,0,GPS_FIX_HOME|GPS_FIX|SMALL_ANGLE|FIXED_WING_LEGACY|COMPASS_CALIBRATED|ACCELEROMETER_CALIBRATED|AIRMODE_ACTIVE|AIRPLANE|ALTITUDE_CONTROL|MOVE_FORWARD_ONLY|SET_REVERSIBLE_MOTORS_FORWARD,IDLE,1,1,134,341,0,0,0,0,0,1,254,245,-1250,-1250,-1250,-1250,-1250,-1250,-1250,-1250,1778576784,5
1632,40137441,0,-66,0,0,0,1,0,0,0,0,0,0,-150,0,1500,1181,1500,987,0,-277,0,1050,12.620,538,-263,-1154,184,1023,0,-1,-3,1,1,-3,78,-174,1954,150,9839,-450,-320,1701,1000,1350,1650,1,37,148,336,61,-214,0,1,-3,1,0,0,0,0,0,0,0,0,1,ARM,0,GPS_FIX_HOME|GPS_FIX|SMALL_ANGLE|FIXED_WING_LEGACY|COMPASS_CALIBRATED|ACCELEROMETER_CALIBRATED|AIRMODE_ACTIVE|AIRPLANE|ALTITUDE_CONTROL|MOVE_FORWARD_ONLY|SET_REVERSIBLE_MOTORS_FORWARD,IDLE,1,1,171,341,0,0,0,0,0,1,254,245,-1250,-1250,-1250,-1250,-1250,-1250,-1250,-1250,1778576784,5
1664,40154167,0,-66,0,0,0,1,0,0,0,0,0,0,-150,0,1500,1186,1500,987,0,-277,0,1050,12.610,538,-263,-1154,184,1023,0,0,-3,2,1,-3,85,-171,1956,199,9840,-449,-321,1697,1000,1350,1650,1,37,148,336,62,-214,0,1,-2,0,0,0,0,0,0,0,0,0,1,ARM,0,GPS_FIX_HOME|GPS_FIX|SMALL_ANGLE|FIXED_WING_LEGACY|COMPASS_CALIBRATED|ACCELEROMETER_CALIBRATED|AIRMODE_ACTIVE|AIRPLANE|ALTITUDE_CONTROL|MOVE_FORWARD_ONLY|SET_REVERSIBLE_MOTORS_FORWARD,IDLE,1,1,171,341,0,0,0,0,0,1,254,245,-1250,-1250,-1250,-1250,-1250,-1250,-1250,-1250,1778576784,5
1696,40170833,0,-66,0,0,0,2,0,0,0,0,0,0,-149,0,1500,1186,1500,987,0,-276,0,1050,12.610,538,-263,-1154,184,1023,0,0,-3,1,0,-4,83,-166,1966,189,9840,-448,-321,1692,1000,1351,1649,1,37,148,336,62,-214,0,1,-2,0,0,0,0,0,0,0,0,0,1,ARM,0,GPS_FIX_HOME|GPS_FIX|SMALL_ANGLE|FIXED_WING_LEGACY|COMPASS_CALIBRATED|ACCELEROMETER_CALIBRATED|AIRMODE_ACTIVE|AIRPLANE|ALTITUDE_CONTROL|MOVE_FORWARD_ONLY|SET_REVERSIBLE_MOTORS_FORWARD,IDLE,1,1,126,341,0,0,0,0,0,1,254,245,-1250,-1250,-1250,-1250,-1250,-1250,-1250,-1250,1778576784,5
1728,40187876,0,-54,0,0,0,2,0,0,0,0,0,0,-122,0,1500,1236,1500,987,0,-226,0,1050,12.620,546,-270,-1139,184,1023,0,1,-4,-1,0,-4,82,-158,1967,173,9841,-447,-320,1686,1000,1377,1623,1,37,148,336,62,-214,0,1,-2,0,0,0,0,0,0,0,0,0,1,ARM,0,GPS_FIX_HOME|GPS_FIX|SMALL_ANGLE|FIXED_WING_LEGACY|COMPASS_CALIBRATED|ACCELEROMETER_CALIBRATED|AIRMODE_ACTIVE|AIRPLANE|ALTITUDE_CONTROL|MOVE_FORWARD_ONLY|SET_REVERSIBLE_MOTORS_FORWARD,IDLE,1,1,117,341,0,0,0,0,0,1,254,245,-1250,-1250,-1250,-1250,-1250,-1250,-1250,-1250,1778576784,5
1760,40204752,0,-42,0,0,-2,2,0,0,0,0,0,0,-95,0,1501,1287,1500,987,0,-177,0,1050,12.620,546,-270,-1139,184,1023,0,1,-4,-1,1,-4,78,-159,1963,158,9843,-447,-319,1680,1000,1402,1598,1,37,148,336,62,-214,0,2,-2,0,0,0,0,0,0,0,0,0,1,ARM,0,GPS_FIX_HOME|GPS_FIX|SMALL_ANGLE|FIXED_WING_LEGACY|COMPASS_CALIBRATED|ACCELEROMETER_CALIBRATED|AIRMODE_ACTIVE|AIRPLANE|ALTITUDE_CONTROL|MOVE_FORWARD_ONLY|SET_REVERSIBLE_MOTORS_FORWARD,IDLE,1,1,117,341,0,0,0,0,0,1,256,245,-1250,-1250,-1250,-1250,-1250,-1250,-1250,-1250,1778576784,5
1792,40221757,0,-23,0,0,-6,2,0,0,0,0,0,0,-52,0,1500,1380,1500,987,0,-97,0,1050,12.620,546,-270,-1139,184,1023,-1,2,-4,-2,1,-4,80,-160,1974,145,9844,-448,-318,1674,1000,1442,1558,1,37,148,336,62,-214,0,2,-2,0,0,0,0,0,0,0,0,0,1,ARM,0,GPS_FIX_HOME|GPS_FIX|SMALL_ANGLE|FIXED_WING_LEGACY|COMPASS_CALIBRATED|ACCELEROMETER_CALIBRATED|AIRMODE_ACTIVE|AIRPLANE|ALTITUDE_CONTROL|MOVE_FORWARD_ONLY|SET_REVERSIBLE_MOTORS_FORWARD,IDLE,1,1,185,341,0,0,0,0,0,1,256,245,-1250,-1250,-1250,-1250,-1250,-1250,-1250,-1250,1778576784,5
1824,40238402,0,-7,0,1,-4,2,0,0,0,0,0,0,-17,0,1500,1458,1500,987,0,-33,0,1050,12.620,546,-270,-1139,184,1023,-3,2,-4,-3,2,-4,74,-165,1973,134,9845,-450,-317,1668,1000,1477,1521,1,37,148,336,63,-214,0,1,-2,0,0,0,0,0,0,0,0,0,1,ARM,0,GPS_FIX_HOME|GPS_FIX|SMALL_ANGLE|FIXED_WING_LEGACY|COMPASS_CALIBRATED|ACCELEROMETER_CALIBRATED|AIRMODE_ACTIVE|AIRPLANE|ALTITUDE_CONTROL|MOVE_FORWARD_ONLY|SET_REVERSIBLE_MOTORS_FORWARD,IDLE,1,1,185,341,0,0,0,0,0,1,256,245,-1250,-1250,-1250,-1250,-1250,-1250,-1250,-1250,1778576784,5
1856,40255014,0,0,0,1,-1,2,0,0,0,0,0,0,0,0,1500,1498,1500,987,0,0,0,1050,12.620,546,-270,-1139,184,1023,-3,2,-4,-3,3,-3,64,-177,1981,128,9845,-455,-316,1662,1000,1498,1500,1,37,148,335,63,-213,0,1,-2,0,0,0,0,0,0,0,0,0,1,ARM,0,GPS_FIX_HOME|GPS_FIX|SMALL_ANGLE|FIXED_WING_LEGACY|ANTI_WINDUP|COMPASS_CALIBRATED|ACCELEROMETER_CALIBRATED|AIRMODE_ACTIVE|AIRPLANE|ALTITUDE_CONTROL|MOVE_FORWARD_ONLY|SET_REVERSIBLE_MOTORS_FORWARD,IDLE,1,1,126,341,0,0,0,0,0,1,256,245,-1250,-1250,-1250,-1250,-1250,-1250,-1250,-1250,1778576784,5
1888,40271598,0,0,0,1,0,2,0,0,0,0,0,0,0,0,1500,1500,1500,987,0,0,0,1050,12.620,546,-270,-1139,184,1023,-4,2,-3,-4,3,-4,53,-184,1996,121,9846,-460,-314,1657,1000,1498,1500,1,37,148,335,63,-213,0,1,-2,0,0,0,0,0,0,0,0,0,1,ARM,0,GPS_FIX_HOME|GPS_FIX|SMALL_ANGLE|FIXED_WING_LEGACY|ANTI_WINDUP|COMPASS_CALIBRATED|ACCELEROMETER_CALIBRATED|AIRMODE_ACTIVE|AIRPLANE|ALTITUDE_CONTROL|MOVE_FORWARD_ONLY|SET_REVERSIBLE_MOTORS_FORWARD,IDLE,1,1,126,341,0,0,0,0,0,1,256,245,-1250,-1250,-1250,-1250,-1250,-1250,-1250,-1250,1778576784,5
1920,40288160,0,0,0,1,0,2,0,0,0,0,0,0,0,0,1500,1500,1500,987,0,0,0,1050,12.620,549,-267,-1156,184,1023,-4,2,-3,-3,2,-3,45,-185,1999,112,9847,-465,-313,1652,1000,1498,1500,1,37,148,335,63,-213,0,1,-2,0,0,0,0,0,0,0,0,0,1,ARM,0,GPS_FIX_HOME|GPS_FIX|SMALL_ANGLE|FIXED_WING_LEGACY|ANTI_WINDUP|COMPASS_CALIBRATED|ACCELEROMETER_CALIBRATED|AIRMODE_ACTIVE|AIRPLANE|ALTITUDE_CONTROL|MOVE_FORWARD_ONLY|SET_REVERSIBLE_MOTORS_FORWARD,IDLE,1,1,176,341,0,0,0,0,0,1,256,245,-1250,-1250,-1250,-1250,-1250,-1250,-1250,-1250,1778576784,5
1952,40304711,0,0,0,1,0,1,0,0,0,0,0,0,0,0,1500,1498,1500,987,0,0,0,1050,12.610,549,-267,-1156,184,1023,-3,2,-3,-3,2,-3,41,-196,1993,102,9847,-470,-311,1647,1000,1499,1499,1,37,148,335,63,-213,0,0,-2,0,0,0,0,0,0,0,0,0,1,ARM,0,GPS_FIX_HOME|GPS_FIX|SMALL_ANGLE|FIXED_WING_LEGACY|ANTI_WINDUP|COMPASS_CALIBRATED|ACCELEROMETER_CALIBRATED|AIRMODE_ACTIVE|AIRPLANE|ALTITUDE_CONTROL|MOVE_FORWARD_ONLY|SET_REVERSIBLE_MOTORS_FORWARD,IDLE,1,1,129,341,0,0,0,0,0,1,256,245,-1250,-1250,-1250,-1250,-1250,-1250,-1250,-1250,1778576784,5
1984,40321178,0,0,0,1,0,1,0,0,0,0,0,0,0,0,1500,1500,1500,987,0,0,0,1050,12.610,549,-267,-1156,184,1023,-3,2,-3,-3,1,-3,40,-205,1995,94,9848,-475,-310,1643,1000,1499,1499,1,37,148,335,63,-213,0,0,-1,0,0,0,0,0,0,0,0,0,1,ARM,0,GPS_FIX_HOME|GPS_FIX|SMALL_ANGLE|FIXED_WING_LEGACY|ANTI_WINDUP|COMPASS_CALIBRATED|ACCELEROMETER_CALIBRATED|AIRMODE_ACTIVE|AIRPLANE|ALTITUDE_CONTROL|MOVE_FORWARD_ONLY|SET_REVERSIBLE_MOTORS_FORWARD,IDLE,1,1,176,341,0,0,0,0,0,1,256,245,-1250,-1250,-1250,-1250,-1250,-1250,-1250,-1250,1778576784,5
2016,40337752,0,0,0,1,0,1,0,0,0,0,0,0,0,0,1500,1500,1500,987,0,0,0,1050,12.610,549,-267,-1156,184,1023,-3,1,-2,-3,1,-2,44,-206,1995,85,9848,-480,-307,1639,1000,1499,1499,1,37,148,335,64,-213,0,0,-1,0,0,0,0,0,0,0,0,0,1,ARM,0,GPS_FIX_HOME|GPS_FIX|SMALL_ANGLE|FIXED_WING_LEGACY|ANTI_WINDUP|COMPASS_CALIBRATED|ACCELEROMETER_CALIBRATED|AIRMODE_ACTIVE|AIRPLANE|ALTITUDE_CONTROL|MOVE_FORWARD_ONLY|SET_REVERSIBLE_MOTORS_FORWARD,IDLE,1,1,129,341,0,0,0,0,0,1,256,245,-1250,-1250,-1250,-1250,-1250,-1250,-1250,-1250,1778576784,5
2048,40354245,0,0,0,1,0,1,0,0,0,0,0,0,0,0,1500,1500,1500,987,0,0,0,1050,12.620,549,-267,-1156,184,1023,-3,1,-2,-2,1,-1,51,-213,2000,78,9849,-484,-304,1636,1000,1499,1499,1,37,148,335,64,-213,0,0,0,0,0,0,0,0,0,0,0,0,1,ARM,0,GPS_FIX_HOME|GPS_FIX|SMALL_ANGLE|FIXED_WING_LEGACY|ANTI_WINDUP|COMPASS_CALIBRATED|ACCELEROMETER_CALIBRATED|AIRMODE_ACTIVE|AIRPLANE|ALTITUDE_CONTROL|MOVE_FORWARD_ONLY|SET_REVERSIBLE_MOTORS_FORWARD,IDLE,1,1,129,341,0,0,0,0,0,1,256,245,-1250,-1250,-1250,-1250,-1250,-1250,-1250,-1250,1778576784,5
2080,40370838,0,0,0,1,0,0,0,0,0,0,0,0,0,0,1500,1500,1500,987,0,0,0,1050,12.620,549,-267,-1156,184,1023,-2,1,-1,-2,0,0,63,-215,2001,72,9849,-488,-302,1634,1000,1500,1500,1,37,148,335,64,-213,0,0,0,0,0,0,0,0,0,0,0,0,1,ARM,0,GPS_FIX_HOME|GPS_FIX|SMALL_ANGLE|FIXED_WING_LEGACY|ANTI_WINDUP|COMPASS_CALIBRATED|ACCELEROMETER_CALIBRATED|AIRMODE_ACTIVE|AIRPLANE|ALTITUDE_CONTROL|MOVE_FORWARD_ONLY|SET_REVERSIBLE_MOTORS_FORWARD,IDLE,1,1,162,341,0,0,0,0,0,1,256,245,-1250,-1250,-1250,-1250,-1250,-1250,-1250,-1250,1778576784,5
2112,40387590,0,0,0,0,0,0,0,0,0,0,0,0,0,0,1500,1498,1500,987,0,0,0,1050,12.610,561,-230,-1156,184,1023,-2,0,0,-2,0,1,69,-218,1992,65,9849,-491,-300,1634,1000,1500,1500,1,37,148,335,64,-213,0,0,0,0,0,0,0,0,0,0,0,0,1,ARM,0,GPS_FIX_HOME|GPS_FIX|SMALL_ANGLE|FIXED_WING_LEGACY|ANTI_WINDUP|COMPASS_CALIBRATED|ACCELEROMETER_CALIBRATED|AIRMODE_ACTIVE|AIRPLANE|ALTITUDE_CONTROL|MOVE_FORWARD_ONLY|SET_REVERSIBLE_MOTORS_FORWARD,IDLE,1,1,162,341,0,0,0,0,0,1,255,246,-1250,-1250,-1250,-1250,-1250,-1250,-1250,-1250,1778576784,5
2144,40404078,0,0,0,0,0,-1,0,0,0,0,0,0,0,0,1500,1498,1500,987,0,0,0,1050,12.610,561,-230,-1156,184,1023,-2,0,2,-2,0,3,78,-220,1993,60,9849,-494,-300,1635,1000,1500,1500,1,37,147,334,64,-213,0,0,0,0,0,0,0,0,0,0,0,0,1,ARM,0,GPS_FIX_HOME|GPS_FIX|SMALL_ANGLE|FIXED_WING_LEGACY|ANTI_WINDUP|COMPASS_CALIBRATED|ACCELEROMETER_CALIBRATED|AIRMODE_ACTIVE|AIRPLANE|ALTITUDE_CONTROL|MOVE_FORWARD_ONLY|SET_REVERSIBLE_MOTORS_FORWARD,IDLE,1,1,162,341,0,0,0,0,0,1,255,246,-1250,-1250,-1250,-1250,-1250,-1250,-1250,-1250,1778576784,5
2176,40420832,0,0,0,0,0,-2,0,0,0,0,0,0,0,0,1500,1498,1500,987,0,0,0,1050,12.610,561,-230,-1156,184,1023,-2,1,3,-2,1,4,83,-221,1994,55,9848,-496,-301,1638,1000,1500,1500,1,37,147,334,64,-212,0,0,0,0,0,0,0,0,0,0,0,0,1,ARM,0,GPS_FIX_HOME|GPS_FIX|SMALL_ANGLE|FIXED_WING_LEGACY|ANTI_WINDUP|COMPASS_CALIBRATED|ACCELEROMETER_CALIBRATED|AIRMODE_ACTIVE|AIRPLANE|ALTITUDE_CONTROL|MOVE_FORWARD_ONLY|SET_REVERSIBLE_MOTORS_FORWARD,IDLE,1,1,114,341,0,0,0,0,0,1,255,246,-1250,-1250,-1250,-1250,-1250,-1250,-1250,-1250,1778576784,5
2208,40437327,0,0,0,0,0,-2,0,0,0,0,0,0,0,0,1500,1500,1500,987,0,0,0,1050,12.610,561,-230,-1156,184,1023,-2,2,4,-2,2,5,77,-214,2003,50,9847,-499,-300,1643,1000,1499,1501,1,37,147,334,65,-212,0,0,0,0,0,0,0,0,0,0,0,0,1,ARM,0,GPS_FIX_HOME|GPS_FIX|SMALL_ANGLE|FIXED_WING_LEGACY|ANTI_WINDUP|COMPASS_CALIBRATED|ACCELEROMETER_CALIBRATED|AIRMODE_ACTIVE|AIRPLANE|ALTITUDE_CONTROL|MOVE_FORWARD_ONLY|SET_REVERSIBLE_MOTORS_FORWARD,IDLE,1,1,114,341,0,0,0,0,0,1,255,246,-1250,-1250,-1250,-1250,-1250,-1250,-1250,-1250,1778576784,5
2240,40453853,0,0,0,0,-1,-3,0,0,0,0,0,0,0,0,1500,1500,1500,987,0,0,0,1050,12.610,561,-230,-1156,184,1023,-1,2,5,-1,3,6,81,-202,1996,46,9846,-502,-298,1649,1000,1499,1501,1,37,147,334,65,-212,-1,0,0,0,0,0,0,0,0,0,0,0,1,ARM,0,GPS_FIX_HOME|GPS_FIX|SMALL_ANGLE|FIXED_WING_LEGACY|ANTI_WINDUP|COMPASS_CALIBRATED|ACCELEROMETER_CALIBRATED|AIRMODE_ACTIVE|AIRPLANE|ALTITUDE_CONTROL|MOVE_FORWARD_ONLY|SET_REVERSIBLE_MOTORS_FORWARD,IDLE,1,1,114,341,0,0,0,0,0,1,255,246,-1250,-1250,-1250,-1250,-1250,-1250,-1250,-1250,1778576784,5
2272,40470342,0,0,0,0,-1,-3,0,0,0,0,0,0,0,0,1500,1498,1500,987,0,0,0,1050,12.610,561,-230,-1156,184,1023,-1,3,6,-1,3,6,82,-196,1984,44,9845,-504,-294,1656,1000,1499,1501,1,37,147,334,65,-212,-1,0,0,0,0,0,0,0,0,0,0,0,1,ARM,0,GPS_FIX_HOME|GPS_FIX|SMALL_ANGLE|FIXED_WING_LEGACY|ANTI_WINDUP|COMPASS_CALIBRATED|ACCELEROMETER_CALIBRATED|AIRMODE_ACTIVE|AIRPLANE|ALTITUDE_CONTROL|MOVE_FORWARD_ONLY|SET_REVERSIBLE_MOTORS_FORWARD,IDLE,1,1,150,341,0,0,0,0,0,1,255,246,-1250,-1250,-1250,-1250,-1250,-1250,-1250,-1250,1778576784,5
2304,40487019,0,0,0,0,-1,-4,0,0,0,0,0,0,0,0,1500,1500,1500,987,0,0,0,1050,12.610,535,-246,-1160,184,1023,-1,3,6,-1,3,7,80,-203,1974,40,9843,-505,-290,1664,1000,1499,1501,1,37,147,334,65,-212,-1,0,0,0,0,0,0,0,0,0,0,0,1,ARM,0,GPS_FIX_HOME|GPS_FIX|SMALL_ANGLE|FIXED_WING_LEGACY|ANTI_WINDUP|COMPASS_CALIBRATED|ACCELEROMETER_CALIBRATED|AIRMODE_ACTIVE|AIRPLANE|ALTITUDE_CONTROL|MOVE_FORWARD_ONLY|SET_REVERSIBLE_MOTORS_FORWARD,IDLE,1,1,150,341,0,0,0,0,0,1,255,246,-1250,-1250,-1250,-1250,-1250,-1250,-1250,-1250,1778576784,5
2336,40503493,0,0,0,0,-1,-4,0,0,0,0,0,0,0,0,1500,1500,1500,987,0,0,0,1050,12.610,535,-246,-1160,184,1023,-1,2,7,-1,2,7,74,-210,1969,37,9842,-507,-286,1674,1000,1499,1501,1,37,147,334,65,-212,-1,0,0,0,0,0,0,0,0,0,0,0,1,ARM,0,GPS_FIX_HOME|GPS_FIX|SMALL_ANGLE|FIXED_WING_LEGACY|ANTI_WINDUP|COMPASS_CALIBRATED|ACCELEROMETER_CALIBRATED|AIRMODE_ACTIVE|AIRPLANE|ALTITUDE_CONTROL|MOVE_FORWARD_ONLY|SET_REVERSIBLE_MOTORS_FORWARD,IDLE,1,1,150,341,0,0,0,0,0,1,255,246,-1250,-1250,-1250,-1250,-1250,-1250,-1250,-1250,1778576784,5
2368,40520014,0,0,0,0,0,-4,0,0,0,0,0,0,0,0,1500,1500,1500,987,0,0,0,1050,12.610,535,-246,-1160,184,1023,-1,1,8,-1,0,8,71,-211,1970,34,9840,-510,-281,1684,1000,1500,1500,1,37,147,334,66,-211,-1,0,0,0,0,0,0,0,0,0,0,0,1,ARM,0,GPS_FIX_HOME|GPS_FIX|SMALL_ANGLE|FIXED_WING_LEGACY|ANTI_WINDUP|COMPASS_CALIBRATED|ACCELEROMETER_CALIBRATED|AIRMODE_ACTIVE|AIRPLANE|ALTITUDE_CONTROL|MOVE_FORWARD_ONLY|SET_REVERSIBLE_MOTORS_FORWARD,IDLE,1,1,138,341,0,0,0,0,0,1,255,246,-1250,-1250,-1250,-1250,-1250,-1250,-1250,-1250,1778576784,5
2400,40536567,0,0,0,0,0,-5,0,0,0,0,0,0,0,0,1500,1500,1500,987,0,0,0,1050,12.610,535,-246,-1160,184,1023,-2,0,8,-2,-1,8,59,-222,1982,34,9838,-512,-279,1695,1000,1500,1500,1,37,147,333,66,-211,-1,0,0,0,0,0,0,0,0,0,0,0,1,ARM,0,GPS_FIX_HOME|GPS_FIX|SMALL_ANGLE|FIXED_WING_LEGACY|ANTI_WINDUP|COMPASS_CALIBRATED|ACCELEROMETER_CALIBRATED|AIRMODE_ACTIVE|AIRPLANE|ALTITUDE_CONTROL|MOVE_FORWARD_ONLY|SET_REVERSIBLE_MOTORS_FORWARD,IDLE,1,1,138,341,0,0,0,0,0,1,255,246,-1250,-1250,-1250,-1250,-1250,-1250,-1250,-1250,1778576784,5
2432,40553024,0,0,0,1,0,-5,0,0,0,0,0,0,0,0,1500,1498,1500,987,0,0,0,1050,12.610,535,-246,-1160,184,1023,-2,-1,8,-2,-2,8,42,-232,2000,33,9836,-516,-278,1707,1000,1499,1499,1,37,147,333,66,-211,-1,0,0,0,0,0,0,0,0,0,0,0,1,ARM,0,GPS_FIX_HOME|GPS_FIX|SMALL_ANGLE|FIXED_WING_LEGACY|ANTI_WINDUP|COMPASS_CALIBRATED|ACCELEROMETER_CALIBRATED|AIRMODE_ACTIVE|AIRPLANE|ALTITUDE_CONTROL|MOVE_FORWARD_ONLY|SET_REVERSIBLE_MOTORS_FORWARD,IDLE,1,1,163,341,0,0,0,0,0,1,255,246,-1250,-1250,-1250,-1250,-1250,-1250,-1250,-1250,1778576784,5
2464,40569642,0,0,0,1,1,-5,0,0,0,0,0,0,0,0,1500,1500,1500,987,0,0,0,1050,12.610,535,-246,-1160,184,1023,-2,-2,8,-2,-3,8,50,-227,2002,31,9834,-519,-280,1718,1000,1500,1498,1,37,147,333,66,-211,-1,0,0,0,0,0,0,0,0,0,0,0,1,ARM,0,GPS_FIX_HOME|GPS_FIX|SMALL_ANGLE|FIXED_WING_LEGACY|ANTI_WINDUP|COMPASS_CALIBRATED|ACCELEROMETER_CALIBRATED|AIRMODE_ACTIVE|AIRPLANE|ALTITUDE_CONTROL|MOVE_FORWARD_ONLY|SET_REVERSIBLE_MOTORS_FORWARD,IDLE,1,1,163,341,0,0,0,0,0,1,256,246,-1250,-1250,-1250,-1250,-1250,-1250,-1250,-1250,1778576784,5
2496,40586151,0,0,0,1,1,-5,0,0,0,0,0,0,0,0,1500,1500,1500,987,0,0,0,1050,12.610,553,-246,-1157,184,1023,-2,-3,8,-2,-3,8,69,-212,1992,31,9831,-522,-283,1730,1000,1500,1498,1,37,147,333,66,-211,-1,0,0,0,0,0,0,0,0,0,0,0,1,ARM,0,GPS_FIX_HOME|GPS_FIX|SMALL_ANGLE|FIXED_WING_LEGACY|ANTI_WINDUP|COMPASS_CALIBRATED|ACCELEROMETER_CALIBRATED|AIRMODE_ACTIVE|AIRPLANE|ALTITUDE_CONTROL|MOVE_FORWARD_ONLY|SET_REVERSIBLE_MOTORS_FORWARD,IDLE,1,1,120,341,0,0,0,0,0,1,256,246,-1250,-1250,-1250,-1250,-1250,-1250,-1250,-1250,1778576784,5
2528,40602656,0,0,0,1,0,-5,0,0,0,0,0,0,0,0,1500,1498,1500,987,0,0,0,1050,12.610,553,-246,-1157,184,1023,-3,-2,8,-3,-1,9,101,-199,1984,34,9829,-525,-285,1742,1000,1499,1499,1,37,147,333,66,-211,-1,0,0,0,0,0,0,0,0,0,0,0,1,ARM,0,GPS_FIX_HOME|GPS_FIX|SMALL_ANGLE|FIXED_WING_LEGACY|ANTI_WINDUP|COMPASS_CALIBRATED|ACCELEROMETER_CALIBRATED|AIRMODE_ACTIVE|AIRPLANE|ALTITUDE_CONTROL|MOVE_FORWARD_ONLY|SET_REVERSIBLE_MOTORS_FORWARD,IDLE,1,1,120,341,0,0,0,0,0,1,256,246,-1250,-1250,-1250,-1250,-1250,-1250,-1250,-1250,1778576784,5
2560,40619169,0,0,0,1,0,-5,0,0,0,0,0,0,0,0,1500,1498,1500,987,0,0,0,1050,12.610,553,-246,-1157,184,1023,-3,0,8,-3,0,8,128,-194,1993,36,9827,-529,-288,1753,1000,1499,1499,1,37,147,333,67,-210,-1,0,0,0,0,0,0,0,0,0,0,0,1,ARM,0,GPS_FIX_HOME|GPS_FIX|SMALL_ANGLE|FIXED_WING_LEGACY|ANTI_WINDUP|COMPASS_CALIBRATED|ACCELEROMETER_CALIBRATED|AIRMODE_ACTIVE|AIRPLANE|ALTITUDE_CONTROL|MOVE_FORWARD_ONLY|SET_REVERSIBLE_MOTORS_FORWARD,IDLE,1,1,127,341,0,0,0,0,0,1,256,246,-1250,-1250,-1250,-1250,-1250,-1250,-1250,-1250,1778576784,5
2592,40635768,0,0,0,1,0,-4,0,0,0,0,0,0,0,0,1500,1500,1500,987,0,0,0,1050,12.610,553,-246,-1157,184,1023,-2,1,8,-2,2,8,135,-194,2012,36,9824,-532,-290,1764,1000,1499,1499,1,37,147,333,67,-210,-1,0,0,0,0,0,0,0,0,0,0,0,1,ARM,0,GPS_FIX_HOME|GPS_FIX|SMALL_ANGLE|FIXED_WING_LEGACY|ANTI_WINDUP|COMPASS_CALIBRATED|ACCELEROMETER_CALIBRATED|AIRMODE_ACTIVE|AIRPLANE|ALTITUDE_CONTROL|MOVE_FORWARD_ONLY|SET_REVERSIBLE_MOTORS_FORWARD,IDLE,1,1,177,341,0,0,0,0,0,1,256,246,-1250,-1250,-1250,-1250,-1250,-1250,-1250,-1250,1778576784,5
2624,40652287,0,0,0,0,-1,-4,0,0,0,0,0,0,0,0,1500,1500,1500,987,0,0,0,1050,12.610,553,-246,-1157,184,1023,-2,3,7,-1,4,7,136,-188,2015,34,9823,-535,-288,1774,1000,1499,1501,1,37,147,333,67,-210,-1,0,0,0,0,0,0,0,0,0,0,0,1,ARM,0,GPS_FIX_HOME|GPS_FIX|SMALL_ANGLE|FIXED_WING_LEGACY|ANTI_WINDUP|COMPASS_CALIBRATED|ACCELEROMETER_CALIBRATED|AIRMODE_ACTIVE|AIRPLANE|ALTITUDE_CONTROL|MOVE_FORWARD_ONLY|SET_REVERSIBLE_MOTORS_FORWARD,IDLE,1,1,177,341,0,0,0,0,0,1,256,246,-1250,-1250,-1250,-1250,-1250,-1250,-1250,-1250,1778576784,5
2656,40668773,0,0,0,0,-2,-4,0,0,0,0,0,0,0,0,1500,1500,1500,987,0,0,0,1050,12.610,553,-246,-1157,184,1023,-1,4,7,0,5,7,130,-176,2003,33,9821,-538,-284,1784,1000,1498,1502,1,37,147,332,67,-210,-1,0,0,0,0,0,0,0,0,0,0,0,1,ARM,0,GPS_FIX_HOME|GPS_FIX|SMALL_ANGLE|FIXED_WING_LEGACY|ANTI_WINDUP|COMPASS_CALIBRATED|ACCELEROMETER_CALIBRATED|AIRMODE_ACTIVE|AIRPLANE|ALTITUDE_CONTROL|MOVE_FORWARD_ONLY|SET_REVERSIBLE_MOTORS_FORWARD,IDLE,1,1,129,341,0,0,0,0,0,1,256,246,-1250,-1250,-1250,-1250,-1250,-1250,-1250,-1250,1778576784,5
2688,40685299,0,0,0,0,-2,-4,0,0,0,0,0,0,0,0,1500,1500,1500,987,0,0,0,1050,12.610,541,-246,-1162,184,1023,0,5,7,0,5,8,139,-186,1982,34,9819,-539,-278,1793,1000,1498,1502,1,37,147,332,67,-210,-1,0,0,0,0,0,0,0,0,0,0,0,1,ARM,0,GPS_FIX_HOME|GPS_FIX|SMALL_ANGLE|FIXED_WING_LEGACY|ANTI_WINDUP|COMPASS_CALIBRATED|ACCELEROMETER_CALIBRATED|AIRMODE_ACTIVE|AIRPLANE|ALTITUDE_CONTROL|MOVE_FORWARD_ONLY|SET_REVERSIBLE_MOTORS_FORWARD,IDLE,1,1,126,341,0,0,0,0,0,1,256,246,-1250,-1250,-1250,-1250,-1250,-1250,-1250,-1250,1778576784,5
2720,40701910,0,0,0,0,-1,-5,0,0,0,0,0,0,0,0,1500,1498,1500,987,0,0,0,1050,12.610,541,-246,-1162,184,1023,1,4,8,1,3,8,159,-203,1958,36,9818,-539,-272,1803,1000,1498,1502,1,37,147,332,67,-210,-1,1,0,0,0,0,0,0,0,0,0,0,1,ARM,0,GPS_FIX_HOME|GPS_FIX|SMALL_ANGLE|FIXED_WING_LEGACY|ANTI_WINDUP|COMPASS_CALIBRATED|ACCELEROMETER_CALIBRATED|AIRMODE_ACTIVE|AIRPLANE|ALTITUDE_CONTROL|MOVE_FORWARD_ONLY|SET_REVERSIBLE_MOTORS_FORWARD,IDLE,1,1,126,341,0,0,0,0,0,1,256,246,-1250,-1250,-1250,-1250,-1250,-1250,-1250,-1250,1778576784,5
2752,40718405,0,0,0,0,-1,-5,0,0,0,0,0,0,0,0,1500,1500,1500,987,0,0,0,1050,12.610,541,-246,-1162,184,1023,2,2,8,2,1,8,161,-213,1948,35,9816,-538,-267,1814,1000,1499,1501,1,37,147,332,68,-210,-1,1,-1,0,0,0,0,0,0,0,0,0,1,ARM,0,GPS_FIX_HOME|GPS_FIX|SMALL_ANGLE|FIXED_WING_LEGACY|ANTI_WINDUP|COMPASS_CALIBRATED|ACCELEROMETER_CALIBRATED|AIRMODE_ACTIVE|AIRPLANE|ALTITUDE_CONTROL|MOVE_FORWARD_ONLY|SET_REVERSIBLE_MOTORS_FORWARD,IDLE,1,1,176,341,0,0,0,0,0,1,256,246,-1250,-1250,-1250,-1250,-1250,-1250,-1250,-1250,1778576784,5
2784,40734942,0,0,0,-1,0,-5,0,0,0,0,0,0,0,0,1500,1500,1500,987,0,0,0,1050,12.610,541,-246,-1162,184,1023,2,1,8,2,0,8,158,-218,1939,34,9814,-536,-264,1826,1000,1501,1501,1,37,147,332,68,-209,-1,2,-1,0,0,0,0,0,0,0,0,0,1,ARM,0,GPS_FIX_HOME|GPS_FIX|SMALL_ANGLE|FIXED_WING_LEGACY|ANTI_WINDUP|COMPASS_CALIBRATED|ACCELEROMETER_CALIBRATED|AIRMODE_ACTIVE|AIRPLANE|ALTITUDE_CONTROL|MOVE_FORWARD_ONLY|SET_REVERSIBLE_MOTORS_FORWARD,IDLE,1,1,176,341,0,0,0,0,0,1,256,246,-1250,-1250,-1250,-1250,-1250,-1250,-1250,-1250,1778576784,5
2816,40751430,0,0,0,-1,0,-5,0,0,0,0,0,0,0,0,1500,1500,1500,987,0,0,0,1050,12.610,541,-246,-1162,184,1023,2,-1,8,2,-2,8,157,-227,1941,32,9812,-533,-263,1838,1000,1501,1501,1,37,147,332,68,-209,-1,2,-1,0,0,0,0,0,0,0,0,0,1,ARM,0,GPS_FIX_HOME|GPS_FIX|SMALL_ANGLE|FIXED_WING_LEGACY|ANTI_WINDUP|COMPASS_CALIBRATED|ACCELEROMETER_CALIBRATED|AIRMODE_ACTIVE|AIRPLANE|ALTITUDE_CONTROL|MOVE_FORWARD_ONLY|SET_REVERSIBLE_MOTORS_FORWARD,IDLE,1,1,129,341,0,0,0,0,0,1,256,246,-1250,-1250,-1250,-1250,-1250,-1250,-1250,-1250,1778576784,5
2848,40767933,0,0,0,0,1,-5,0,0,0,0,0,0,0,0,1500,1500,1500,987,0,0,0,1050,12.610,541,-246,-1162,184,1023,1,-2,8,1,-3,8,147,-243,1947,32,9810,-530,-265,1850,1000,1501,1499,1,37,147,332,68,-209,-1,3,-1,-1,0,0,0,0,0,0,0,0,1,ARM,0,GPS_FIX_HOME|GPS_FIX|SMALL_ANGLE|FIXED_WING_LEGACY|ANTI_WINDUP|COMPASS_CALIBRATED|ACCELEROMETER_CALIBRATED|AIRMODE_ACTIVE|AIRPLANE|ALTITUDE_CONTROL|MOVE_FORWARD_ONLY|SET_REVERSIBLE_MOTORS_FORWARD,IDLE,1,1,120,341,0,0,0,0,0,1,256,246,-1250,-1250,-1250,-1250,-1250,-1250,-1250,-1250,1778576784,5
2880,40784683,0,0,0,0,1,-5,0,0,0,0,0,0,0,0,1500,1500,1500,987,0,0,0,1050,12.610,537,-251,-1148,184,1023,0,-4,8,0,-4,8,144,-253,1964,31,9807,-529,-269,1861,1000,1501,1499,1,37,147,332,68,-209,-1,3,0,-1,0,0,0,0,0,0,0,0,1,ARM,0,GPS_FIX_HOME|GPS_FIX|SMALL_ANGLE|FIXED_WING_LEGACY|ANTI_WINDUP|COMPASS_CALIBRATED|ACCELEROMETER_CALIBRATED|AIRMODE_ACTIVE|AIRPLANE|ALTITUDE_CONTROL|MOVE_FORWARD_ONLY|SET_REVERSIBLE_MOTORS_FORWARD,IDLE,1,1,120,341,0,0,0,0,0,1,256,246,-1250,-1250,-1250,-1250,-1250,-1250,-1250,-1250,1778576784,5
2912,40801201,0,0,0,0,1,-5,0,0,0,0,0,0,0,0,1500,1500,1500,987,0,0,0,1050,12.610,537,-251,-1148,184,1023,-1,-4,8,-1,-4,8,152,-238,1978,32,9805,-529,-275,1872,1000,1502,1498,1,37,147,331,69,-209,-1,4,0,-1,0,0,0,0,0,0,0,0,1,ARM,0,GPS_FIX_HOME|GPS_FIX|SMALL_ANGLE|FIXED_WING_LEGACY|ANTI_WINDUP|COMPASS_CALIBRATED|ACCELEROMETER_CALIBRATED|AIRMODE_ACTIVE|AIRPLANE|ALTITUDE_CONTROL|MOVE_FORWARD_ONLY|SET_REVERSIBLE_MOTORS_FORWARD,IDLE,1,1,158,341,0,0,0,0,0,1,256,246,-1250,-1250,-1250,-1250,-1250,-1250,-1250,-1250,1778576784,5
2944,40817643,0,0,0,0,1,-4,0,0,0,0,0,0,0,0,1500,1500,1500,987,0,0,0,1050,12.610,537,-251,-1148,184,1023,-1,-3,8,-1,-3,7,152,-198,1983,33,9803,-529,-281,1883,1000,1501,1499,1,37,147,331,69,-209,-1,4,0,-1,0,0,0,0,0,0,0,0,1,ARM,0,GPS_FIX_HOME|GPS_FIX|SMALL_ANGLE|FIXED_WING_LEGACY|ANTI_WINDUP|COMPASS_CALIBRATED|ACCELEROMETER_CALIBRATED|AIRMODE_ACTIVE|AIRPLANE|ALTITUDE_CONTROL|MOVE_FORWARD_ONLY|SET_REVERSIBLE_MOTORS_FORWARD,IDLE,1,1,158,341,0,0,0,0,0,1,256,246,-1250,-1250,-1250,-1250,-1250,-1250,-1250,-1250,1778576784,5
2976,40834298,-1,0,0,0,1,-4,0,0,0,0,0,-2,0,0,1497,1500,1500,987,-2,0,0,1050,12.610,537,-251,-1148,184,1023,-1,-3,7,-1,-3,6,151,-186,1981,32,9801,-530,-286,1893,1000,1503,1501,1,37,147,331,69,-209,-1,4,0,-1,0,0,0,0,0,0,0,0,1,ARM,0,GPS_FIX_HOME|GPS_FIX|SMALL_ANGLE|FIXED_WING_LEGACY|ANTI_WINDUP|COMPASS_CALIBRATED|ACCELEROMETER_CALIBRATED|AIRMODE_ACTIVE|AIRPLANE|ALTITUDE_CONTROL|MOVE_FORWARD_ONLY|SET_REVERSIBLE_MOTORS_FORWARD,IDLE,1,1,148,341,0,0,0,0,0,1,256,246,-1250,-1250,-1250,-1250,-1250,-1250,-1250,-1250,1778576784,5
3008,40850798,0,0,0,0,1,-3,0,0,0,0,0,0,0,0,1500,1500,1500,987,0,0,0,1050,12.610,537,-251,-1148,184,1023,0,-3,5,0,-3,4,130,-189,1980,33,9799,-530,-290,1901,1000,1501,1499,1,37,147,331,69,-209,-1,5,0,-1,0,0,0,0,0,0,0,0,1,ARM,0,GPS_FIX_HOME|GPS_FIX|SMALL_ANGLE|FIXED_WING_LEGACY|ANTI_WINDUP|COMPASS_CALIBRATED|ACCELEROMETER_CALIBRATED|AIRMODE_ACTIVE|AIRPLANE|ALTITUDE_CONTROL|MOVE_FORWARD_ONLY|SET_REVERSIBLE_MOTORS_FORWARD,IDLE,1,1,112,341,0,0,0,0,0,1,256,246,-1250,-1250,-1250,-1250,-1250,-1250,-1250,-1250,1778576784,5
3040,40867344,0,0,0,0,1,-2,0,0,0,0,0,0,0,0,1500,1500,1500,987,0,0,0,1050,12.610,537,-251,-1148,184,1023,0,-2,3,1,-2,2,96,-194,1983,36,9798,-529,-294,1907,1000,1501,1499,1,37,147,331,69,-209,-1,5,-1,-1,0,0,0,0,0,0,0,0,1,ARM,0,GPS_FIX_HOME|GPS_FIX|SMALL_ANGLE|FIXED_WING_LEGACY|ANTI_WINDUP|COMPASS_CALIBRATED|ACCELEROMETER_CALIBRATED|AIRMODE_ACTIVE|AIRPLANE|ALTITUDE_CONTROL|MOVE_FORWARD_ONLY|SET_REVERSIBLE_MOTORS_FORWARD,IDLE,1,1,112,341,0,0,0,0,0,1,256,246,-1250,-1250,-1250,-1250,-1250,-1250,-1250,-1250,1778576784,5
3072,40884039,0,0,0,0,1,0,0,0,0,0,0,0,0,0,1500,1500,1500,987,0,0,0,1050,12.610,549,-259,-1158,176,1023,1,-3,1,1,-3,1,66,-186,1981,38,9797,-528,-297,1910,1000,1501,1499,1,37,147,331,70,-208,-1,5,-1,-2,0,0,0,0,0,0,0,0,1,ARM,0,GPS_FIX_HOME|GPS_FIX|SMALL_ANGLE|FIXED_WING_LEGACY|ANTI_WINDUP|COMPASS_CALIBRATED|ACCELEROMETER_CALIBRATED|AIRMODE_ACTIVE|AIRPLANE|ALTITUDE_CONTROL|MOVE_FORWARD_ONLY|SET_REVERSIBLE_MOTORS_FORWARD,IDLE,1,1,112,341,0,0,0,0,0,1,256,246,-1250,-1250,-1250,-1250,-1250,-1250,-1250,-1250,1778576784,5
3104,40900473,0,0,0,0,1,0,0,0,0,0,0,0,0,0,1500,1500,1500,987,0,0,0,1050,12.610,549,-259,-1158,176,1023,1,-4,0,0,-5,-1,52,-177,1985,38,9797,-525,-302,1911,1000,1502,1498,1,37,147,331,70,-208,-1,4,-1,-2,0,0,0,0,0,0,0,0,1,ARM,0,GPS_FIX_HOME|GPS_FIX|SMALL_ANGLE|FIXED_WING_LEGACY|ANTI_WINDUP|COMPASS_CALIBRATED|ACCELEROMETER_CALIBRATED|AIRMODE_ACTIVE|AIRPLANE|ALTITUDE_CONTROL|MOVE_FORWARD_ONLY|SET_REVERSIBLE_MOTORS_FORWARD,IDLE,1,1,150,341,0,0,0,0,0,1,256,246,-1250,-1250,-1250,-1250,-1250,-1250,-1250,-1250,1778576784,5
3136,40917059,0,0,0,0,2,0,0,0,0,0,0,0,0,0,1500,1500,1500,987,0,0,0,1050,12.620,549,-259,-1158,184,1023,-1,-5,-2,-1,-5,-2,55,-179,2015,40,9797,-524,-308,1910,1000,1502,1498,1,37,147,331,70,-208,-1,3,-1,-2,0,0,0,0,0,0,0,0,1,ARM,0,GPS_FIX_HOME|GPS_FIX|SMALL_ANGLE|FIXED_WING_LEGACY|ANTI_WINDUP|COMPASS_CALIBRATED|ACCELEROMETER_CALIBRATED|AIRMODE_ACTIVE|AIRPLANE|ALTITUDE_CONTROL|MOVE_FORWARD_ONLY|SET_REVERSIBLE_MOTORS_FORWARD,IDLE,1,1,146,341,0,0,0,0,0,1,256,246,-1250,-1250,-1250,-1250,-1250,-1250,-1250,-1250,1778576784,5
3168,40933684,0,0,0,1,2,2,0,0,0,0,0,0,0,0,1498,1500,1500,987,0,0,0,1050,12.620,549,-259,-1158,184,1023,-2,-4,-3,-3,-4,-4,44,-161,2065,49,9798,-524,-314,1906,1000,1501,1497,1,37,147,331,70,-208,-1,3,-1,-2,0,0,0,0,0,0,0,0,1,ARM,0,GPS_FIX_HOME|GPS_FIX|SMALL_ANGLE|FIXED_WING_LEGACY|ANTI_WINDUP|COMPASS_CALIBRATED|ACCELEROMETER_CALIBRATED|AIRMODE_ACTIVE|AIRPLANE|ALTITUDE_CONTROL|MOVE_FORWARD_ONLY|SET_REVERSIBLE_MOTORS_FORWARD,IDLE,1,1,121,341,0,0,0,0,0,1,256,246,-1250,-1250,-1250,-1250,-1250,-1250,-1250,-1250,1778576784,5
3200,40950116,0,0,0,1,1,3,0,0,0,0,0,0,0,0,1500,1500,1500,987,0,0,0,1050,12.620,549,-259,-1158,184,1023,-3,-2,-5,-4,-1,-6,29,-139,2104,54,9798,-526,-320,1901,1000,1500,1498,1,37,147,330,70,-208,-1,2,-1,-1,0,0,0,0,0,0,0,0,1,ARM,0,GPS_FIX_HOME|GPS_FIX|SMALL_ANGLE|FIXED_WING_LEGACY|ANTI_WINDUP|COMPASS_CALIBRATED|ACCELEROMETER_CALIBRATED|AIRMODE_ACTIVE|AIRPLANE|ALTITUDE_CONTROL|MOVE_FORWARD_ONLY|SET_REVERSIBLE_MOTORS_FORWARD,IDLE,1,1,121,341,0,0,0,0,0,1,256,246,-1250,-1250,-1250,-1250,-1250,-1250,-1250,-1250,1778576784,5
3232,40966472,0,0,0,1,0,4,0,0,0,0,0,0,0,0,1500,1500,1500,987,0,0,0,1050,12.620,549,-259,-1158,184,1023,-4,-1,-6,-3,0,-7,17,-121,2125,55,9800,-530,-323,1893,1000,1498,1498,1,37,147,330,70,-208,-1,1,-1,0,0,0,0,0,0,0,0,0,1,ARM,0,GPS_FIX_HOME|GPS_FIX|SMALL_ANGLE|FIXED_WING_LEGACY|ANTI_WINDUP|COMPASS_CALIBRATED|ACCELEROMETER_CALIBRATED|AIRMODE_ACTIVE|AIRPLANE|ALTITUDE_CONTROL|MOVE_FORWARD_ONLY|SET_REVERSIBLE_MOTORS_FORWARD,IDLE,1,1,121,341,0,0,0,0,0,1,256,246,-1250,-1250,-1250,-1250,-1250,-1250,-1250,-1250,1778576784,5
3264,40983169,0,0,0,1,0,4,0,0,0,0,0,0,0,0,1500,1498,1500,987,0,0,0,1050,12.610,524,-246,-1148,184,1023,-3,-1,-7,-2,-1,-8,28,-116,2128,52,9801,-533,-324,1882,1000,1499,1499,1,37,147,330,71,-208,-1,0,-2,0,0,0,0,0,0,0,0,0,1,ARM,0,GPS_FIX_HOME|GPS_FIX|SMALL_ANGLE|FIXED_WING_LEGACY|ANTI_WINDUP|COMPASS_CALIBRATED|ACCELEROMETER_CALIBRATED|AIRMODE_ACTIVE|AIRPLANE|ALTITUDE_CONTROL|MOVE_FORWARD_ONLY|SET_REVERSIBLE_MOTORS_FORWARD,IDLE,1,1,159,341,0,0,0,0,0,1,256,246,-1250,-1250,-1250,-1250,-1250,-1250,-1250,-1250,1778576784,5
3296,40999694,0,0,0,0,0,5,0,0,0,0,0,0,0,0,1500,1500,1500,987,0,0,0,1050,12.610,524,-246,-1148,184,1023,-2,-1,-8,-1,-2,-8,34,-116,2119,49,9803,-535,-326,1871,1000,1500,1500,1,37,147,330,71,-208,-1,0,-2,1,0,0,0,0,0,0,0,0,1,ARM,0,GPS_FIX_HOME|GPS_FIX|SMALL_ANGLE|FIXED_WING_LEGACY|ANTI_WINDUP|COMPASS_CALIBRATED|ACCELEROMETER_CALIBRATED|AIRMODE_ACTIVE|AIRPLANE|ALTITUDE_CONTROL|MOVE_FORWARD_ONLY|SET_REVERSIBLE_MOTORS_FORWARD,IDLE,1,1,159,341,0,0,0,0,0,1,256,246,-1250,-1250,-1250,-1250,-1250,-1250,-1250,-1250,1778576784,5
3328,41016257,0,0,0,0,1,4,0,0,0,0,0,0,0,0,1500,1500,1500,987,0,0,0,1050,12.610,524,-246,-1148,184,1023,0,-2,-8,1,-3,-7,1,-132,2116,49,9805,-534,-329,1860,1000,1501,1499,1,37,147,330,71,-208,-1,0,-2,1,0,0,0,0,0,0,0,0,1,ARM,0,GPS_FIX_HOME|GPS_FIX|SMALL_ANGLE|FIXED_WING_LEGACY|ANTI_WINDUP|COMPASS_CALIBRATED|ACCELEROMETER_CALIBRATED|AIRMODE_ACTIVE|AIRPLANE|ALTITUDE_CONTROL|MOVE_FORWARD_ONLY|SET_REVERSIBLE_MOTORS_FORWARD,IDLE,1,1,136,341,0,0,0,0,0,1,256,246,-1250,-1250,-1250,-1250,-1250,-1250,-1250,-1250,1778576784,5
3360,41032874,0,0,0,0,2,3,0,0,0,0,0,0,0,0,1500,1500,1500,987,0,0,0,1050,12.610,524,-246,-1148,184,1023,1,-5,-6,1,-7,-5,-33,-186,2108,58,9807,-532,-334,1850,1000,1502,1498,1,37,147,330,71,-208,-1,-1,-3,2,0,0,0,0,0,0,0,0,1,ARM,0,GPS_FIX_HOME|GPS_FIX|SMALL_ANGLE|FIXED_WING_LEGACY|ANTI_WINDUP|COMPASS_CALIBRATED|ACCELEROMETER_CALIBRATED|AIRMODE_ACTIVE|AIRPLANE|ALTITUDE_CONTROL|MOVE_FORWARD_ONLY|SET_REVERSIBLE_MOTORS_FORWARD,IDLE,1,1,121,341,0,0,0,0,0,1,256,246,-1250,-1250,-1250,-1250,-1250,-1250,-1250,-1250,1778576784,5
3392,41049390,0,0,0,0,5,2,0,0,0,0,0,0,0,0,1498,1498,1500,987,0,0,0,1050,12.610,524,-246,-1148,184,1023,1,-10,-4,2,-14,-2,-37,-251,2085,64,9808,-528,-344,1844,1000,1505,1495,1,37,147,330,71,-208,-1,-3,-3,3,0,0,0,0,0,0,0,0,1,ARM,0,GPS_FIX_HOME|GPS_FIX|SMALL_ANGLE|FIXED_WING_LEGACY|ANTI_WINDUP|COMPASS_CALIBRATED|ACCELEROMETER_CALIBRATED|AIRMODE_ACTIVE|AIRPLANE|ALTITUDE_CONTROL|MOVE_FORWARD_ONLY|SET_REVERSIBLE_MOTORS_FORWARD,IDLE,1,1,136,341,0,0,0,0,0,1,256,246,-1250,-1250,-1250,-1250,-1250,-1250,-1250,-1250,1778576784,5
3424,41065886,0,0,0,-1,8,0,0,0,0,0,0,0,0,0,1500,1498,1500,987,0,0,0,1050,12.610,524,-246,-1148,184,1023,3,-17,-1,4,-20,-1,-10,-262,2055,62,9808,-522,-362,1841,1000,1510,1492,1,37,147,330,71,-208,-1,-4,-2,4,0,0,0,0,0,0,0,0,1,ARM,0,GPS_FIX_HOME|GPS_FIX|SMALL_ANGLE|FIXED_WING_LEGACY|ANTI_WINDUP|COMPASS_CALIBRATED|ACCELEROMETER_CALIBRATED|AIRMODE_ACTIVE|AIRPLANE|ALTITUDE_CONTROL|MOVE_FORWARD_ONLY|SET_REVERSIBLE_MOTORS_FORWARD,IDLE,1,1,162,341,0,0,0,0,0,1,256,246,-1250,-1250,-1250,-1250,-1250,-1250,-1250,-1250,1778576784,5
3456,41082682,0,0,0,-2,10,0,0,0,0,0,0,0,0,0,1500,1498,1500,987,0,0,0,1050,12.610,509,-251,-1179,184,1023,5,-22,0,6,-24,0,-8,-255,2047,58,9808,-512,-388,1842,1000,1513,1491,1,37,147,329,71,-208,0,-5,-1,5,0,0,0,0,0,0,0,0,1,ARM,0,GPS_FIX_HOME|GPS_FIX|SMALL_ANGLE|FIXED_WING_LEGACY|ANTI_WINDUP|COMPASS_CALIBRATED|ACCELEROMETER_CALIBRATED|AIRMODE_ACTIVE|AIRPLANE|ALTITUDE_CONTROL|MOVE_FORWARD_ONLY|SET_REVERSIBLE_MOTORS_FORWARD,IDLE,1,1,162,341,0,0,0,0,0,1,256,246,-1250,-1250,-1250,-1250,-1250,-1250,-1250,-1250,1778576784,5
3488,41099326,0,0,0,-3,11,0,0,0,0,0,0,0,0,0,1500,1500,1500,987,0,0,0,1050,12.610,509,-251,-1179,184,1023,7,-25,0,7,-25,0,25,-262,2059,61,9807,-498,-418,1844,1000,1515,1491,1,37,147,329,71,-207,0,-6,0,5,0,0,0,0,0,0,0,0,1,ARM,0,GPS_FIX_HOME|GPS_FIX|SMALL_ANGLE|FIXED_WING_LEGACY|ANTI_WINDUP|COMPASS_CALIBRATED|ACCELEROMETER_CALIBRATED|AIRMODE_ACTIVE|AIRPLANE|ALTITUDE_CONTROL|MOVE_FORWARD_ONLY|SET_REVERSIBLE_MOTORS_FORWARD,IDLE,1,1,128,341,0,0,0,0,0,1,256,246,-1250,-1250,-1250,-1250,-1250,-1250,-1250,-1250,1778576784,5
3520,41115787,0,0,0,-2,11,0,0,0,0,0,0,0,0,0,1500,1500,1500,987,0,0,0,1050,12.610,509,-251,-1179,184,1023,6,-25,1,5,-24,2,74,-282,2108,68,9806,-482,-451,1847,1000,1515,1491,1,37,147,329,71,-207,0,-6,0,5,0,0,0,0,0,0,0,0,1,ARM,0,GPS_FIX_HOME|GPS_FIX|SMALL_ANGLE|FIXED_WING_LEGACY|ANTI_WINDUP|COMPASS_CALIBRATED|ACCELEROMETER_CALIBRATED|AIRMODE_ACTIVE|AIRPLANE|ALTITUDE_CONTROL|MOVE_FORWARD_ONLY|SET_REVERSIBLE_MOTORS_FORWARD,IDLE,1,1,128,341,0,0,0,0,0,1,257,247,-1250,-1250,-1250,-1250,-1250,-1250,-1250,-1250,1778576784,5
