loopIteration,time (us),axisRate[0],axisRate[1],axisRate[2],axisP[0],axisP[1],axisP[2],axisI[0],axisI[1],axisI[2],axisD[0],axisD[1],axisF[0],axisF[1],axisF[2],rcData[0],rcData[1],rcData[2],rcData[3],rcCommand[0],rcCommand[1],rcCommand[2],rcCommand[3],vbat (V),magADC[0],magADC[1],magADC[2],BaroAlt (cm),rssi,gyroADC[0],gyroADC[1],gyroADC[2],gyroRaw[0],gyroRaw[1],gyroRaw[2],accSmooth[0],accSmooth[1],accSmooth[2],accVib,quaternion[0],quaternion[1],quaternion[2],quaternion[3],motor[0],servo[0],servo[1],navState,navFlags,navEPH,navEPV,navPos[0],navPos[1],navPos[2],navVel[0],navVel[1],navVel[2],navTgtVel[0],navTgtVel[1],navTgtVel[2],navTgtPos[0],navTgtPos[1],navTgtPos[2],navTgtHdg,navSurf,activeWpNumber,flightModeFlags (flags),activeFlightModeFlags,stateFlags (flags),failsafePhase (flags),rxSignalReceived,rxFlightChannelsValid,rxUpdateRate,hwHealthStatus,powerSupplyImpedance,sagCompensatedVBat,wind[0],wind[1],wind[2],mspOverrideFlags,IMUTemperature,baroTemperature,sens0Temp,sens1Temp,sens2Temp,sens3Temp,sens4Temp,sens5Temp,sens6Temp,sens7Temp,escRPM,escTemperature
0,179716382,0,38,0,0,2,5,0,0,0,0,0,1,86,0,1500,1500,1500,987,0,0,0,1050,12.570,321,-307,-1190,289,1023,0,6,-8,-2,7,-8,447,-42,1936,66,9811,163,-1092,1588,1000,1587,1409,26,37,122,270,290,-195,0,5,22,0,0,0,0,0,0,0,0,0,1,ARM,129,GPS_FIX_HOME|GPS_FIX|SMALL_ANGLE|FIXED_WING_LEGACY|ANTI_WINDUP|NAV_MOTOR_STOP_OR_IDLE|COMPASS_CALIBRATED|ACCELEROMETER_CALIBRATED|AIRMODE_ACTIVE|AIRPLANE|ALTITUDE_CONTROL|MOVE_FORWARD_ONLY|SET_REVERSIBLE_MOTORS_FORWARD,IDLE,1,1,122,341,0,0,0,0,0,1,385,398,-1250,-1250,-1250,-1250,-1250,-1250,-1250,-1250,1778576784,5
32,179733283,0,38,0,1,2,5,0,0,0,0,0,0,86,0,1500,1500,1500,987,0,0,0,1050,12.570,321,-307,-1190,289,1023,-3,6,-8,-5,5,-8,405,-28,1915,64,9814,160,-1083,1575,1000,1586,1408,26,37,122,270,290,-195,0,5,22,0,0,0,0,0,0,0,0,0,1,ARM,129,GPS_FIX_HOME|GPS_FIX|SMALL_ANGLE|FIXED_WING_LEGACY|ANTI_WINDUP|NAV_MOTOR_STOP_OR_IDLE|COMPASS_CALIBRATED|ACCELEROMETER_CALIBRATED|AIRMODE_ACTIVE|AIRPLANE|ALTITUDE_CONTROL|MOVE_FORWARD_ONLY|SET_REVERSIBLE_MOTORS_FORWARD,IDLE,1,1,126,341,0,0,0,0,0,1,385,398,-1250,-1250,-1250,-1250,-1250,-1250,-1250,-1250,1778576784,5
64,179749959,0,38,0,3,2,5,0,0,0,0,0,0,86,0,1500,1500,1500,987,0,0,0,1050,12.570,321,-307,-1190,289,1023,-6,4,-9,-8,3,-9,376,-70,1894,65,9817,153,-1076,1561,1000,1585,1407,26,37,122,270,290,-195,0,5,21,-1,0,0,0,0,0,0,0,0,1,ARM,129,GPS_FIX_HOME|GPS_FIX|SMALL_ANGLE|FIXED_WING_LEGACY|ANTI_WINDUP|NAV_MOTOR_STOP_OR_IDLE|COMPASS_CALIBRATED|ACCELEROMETER_CALIBRATED|AIRMODE_ACTIVE|AIRPLANE|ALTITUDE_CONTROL|MOVE_FORWARD_ONLY|SET_REVERSIBLE_MOTORS_FORWARD,IDLE,1,1,172,341,0,0,0,0,0,1,385,398,-1250,-1250,-1250,-1250,-1250,-1250,-1250,-1250,1778576784,5
96,179766782,0,38,0,3,3,5,0,0,0,0,0,0,85,0,1498,1500,1500,987,0,0,0,1050,12.570,321,-307,-1190,289,1023,-7,2,-9,-8,0,-8,352,-104,1884,65,9820,144,-1073,1546,1000,1584,1406,26,37,122,270,290,-195,0,5,20,-1,0,0,0,0,0,0,0,0,1,ARM,129,GPS_FIX_HOME|GPS_FIX|SMALL_ANGLE|FIXED_WING_LEGACY|ANTI_WINDUP|NAV_MOTOR_STOP_OR_IDLE|COMPASS_CALIBRATED|ACCELEROMETER_CALIBRATED|AIRMODE_ACTIVE|AIRPLANE|ALTITUDE_CONTROL|MOVE_FORWARD_ONLY|SET_REVERSIBLE_MOTORS_FORWARD,IDLE,1,1,172,341,0,0,0,0,0,1,385,397,-1250,-1250,-1250,-1250,-1250,-1250,-1250,-1250,1778576784,5
128,179783318,0,37,0,3,3,5,0,0,0,0,0,1,85,0,1498,1500,1500,987,0,0,0,1050,12.570,321,-307,-1190,298,1023,-7,-2,-8,-7,-4,-7,351,-119,1861,63,9822,135,-1074,1533,1000,1584,1406,26,37,122,270,290,-195,0,4,20,-2,0,0,0,0,0,0,0,0,1,ARM,129,GPS_FIX_HOME|GPS_FIX|SMALL_ANGLE|FIXED_WING_LEGACY|ANTI_WINDUP|NAV_MOTOR_STOP_OR_IDLE|COMPASS_CALIBRATED|ACCELEROMETER_CALIBRATED|AIRMODE_ACTIVE|AIRPLANE|ALTITUDE_CONTROL|MOVE_FORWARD_ONLY|SET_REVERSIBLE_MOTORS_FORWARD,IDLE,1,1,133,341,0,0,0,0,0,1,385,397,-1250,-1250,-1250,-1250,-1250,-1250,-1250,-1250,1778576784,5
160,179800162,0,37,0,4,3,4,0,0,0,0,0,1,85,0,1500,1500,1500,987,0,0,0,1050,12.570,321,-307,-1190,298,1023,-8,-5,-7,-9,-7,-6,366,-125,1857,58,9824,125,-1080,1520,1000,1584,1406,26,37,122,270,290,-195,0,4,20,-3,0,0,0,0,0,0,0,0,1,ARM,129,GPS_FIX_HOME|GPS_FIX|SMALL_ANGLE|FIXED_WING_LEGACY|ANTI_WINDUP|NAV_MOTOR_STOP_OR_IDLE|COMPASS_CALIBRATED|ACCELEROMETER_CALIBRATED|AIRMODE_ACTIVE|AIRPLANE|ALTITUDE_CONTROL|MOVE_FORWARD_ONLY|SET_REVERSIBLE_MOTORS_FORWARD,IDLE,1,1,112,341,0,0,0,0,0,1,385,397,-1250,-1250,-1250,-1250,-1250,-1250,-1250,-1250,1778576784,5
192,179817085,1,37,0,5,3,3,0,0,0,0,0,1,85,0,1497,1500,1500,987,0,0,0,1050,12.570,354,-307,-1210,289,1023,-10,-9,-6,-11,-10,-5,370,-129,1872,54,9824,114,-1092,1508,1000,1582,1404,26,37,122,270,290,-195,0,4,20,-3,0,0,0,0,0,0,0,0,1,ARM,129,GPS_FIX_HOME|GPS_FIX|SMALL_ANGLE|FIXED_WING_LEGACY|ANTI_WINDUP|NAV_MOTOR_STOP_OR_IDLE|COMPASS_CALIBRATED|ACCELEROMETER_CALIBRATED|AIRMODE_ACTIVE|AIRPLANE|ALTITUDE_CONTROL|MOVE_FORWARD_ONLY|SET_REVERSIBLE_MOTORS_FORWARD,IDLE,1,1,112,341,0,0,0,0,0,1,385,397,-1250,-1250,-1250,-1250,-1250,-1250,-1250,-1250,1778576784,5
224,179833592,1,38,0,6,4,3,0,0,0,0,0,2,86,0,1500,1500,1500,987,0,0,0,1050,12.570,354,-307,-1210,289,1023,-12,-10,-5,-13,-11,-4,373,-138,1889,50,9824,101,-1108,1498,1000,1581,1401,26,37,122,270,290,-195,0,3,20,-4,0,0,0,0,0,0,0,0,1,ARM,129,GPS_FIX_HOME|GPS_FIX|SMALL_ANGLE|FIXED_WING_LEGACY|ANTI_WINDUP|NAV_MOTOR_STOP_OR_IDLE|COMPASS_CALIBRATED|ACCELEROMETER_CALIBRATED|AIRMODE_ACTIVE|AIRPLANE|ALTITUDE_CONTROL|MOVE_FORWARD_ONLY|SET_REVERSIBLE_MOTORS_FORWARD,IDLE,1,1,159,341,0,0,0,0,0,1,385,397,-1250,-1250,-1250,-1250,-1250,-1250,-1250,-1250,1778576784,5
256,179850399,1,38,0,7,3,2,0,0,0,0,0,3,86,0,1500,1500,1500,987,0,0,0,1050,12.560,354,-307,-1210,289,1023,-14,-11,-4,-15,-11,-4,391,-126,1893,48,9824,84,-1126,1488,1000,1580,1398,26,37,122,270,290,-196,0,2,19,-5,0,0,0,0,0,0,0,0,1,ARM,129,GPS_FIX_HOME|GPS_FIX|SMALL_ANGLE|FIXED_WING_LEGACY|ANTI_WINDUP|NAV_MOTOR_STOP_OR_IDLE|COMPASS_CALIBRATED|ACCELEROMETER_CALIBRATED|AIRMODE_ACTIVE|AIRPLANE|ALTITUDE_CONTROL|MOVE_FORWARD_ONLY|SET_REVERSIBLE_MOTORS_FORWARD,IDLE,1,1,159,341,0,0,0,0,0,1,385,397,-1250,-1250,-1250,-1250,-1250,-1250,-1250,-1250,1778576784,5
288,179867039,2,38,0,8,3,1,0,0,0,0,0,4,87,0,1500,1500,1500,987,0,0,0,1050,12.570,354,-307,-1210,289,1023,-16,-11,-3,-17,-12,-2,422,-118,1878,51,9823,66,-1144,1479,1000,1578,1396,26,37,121,270,290,-196,0,1,19,-6,0,0,0,0,0,0,0,0,1,ARM,129,GPS_FIX_HOME|GPS_FIX|SMALL_ANGLE|FIXED_WING_LEGACY|ANTI_WINDUP|NAV_MOTOR_STOP_OR_IDLE|COMPASS_CALIBRATED|ACCELEROMETER_CALIBRATED|AIRMODE_ACTIVE|AIRPLANE|ALTITUDE_CONTROL|MOVE_FORWARD_ONLY|SET_REVERSIBLE_MOTORS_FORWARD,IDLE,1,1,146,341,0,0,0,0,0,1,385,397,-1250,-1250,-1250,-1250,-1250,-1250,-1250,-1250,1778576784,5
320,179884009,3,39,0,9,3,1,0,0,0,0,0,5,89,0,1496,1500,1500,987,0,0,0,1050,12.570,354,-307,-1210,298,1023,-17,-13,-2,-17,-13,-1,477,-163,1850,63,9822,44,-1166,1472,1000,1577,1393,26,37,121,270,290,-196,0,1,18,-7,0,0,0,0,0,0,0,0,1,ARM,129,GPS_FIX_HOME|GPS_FIX|SMALL_ANGLE|FIXED_WING_LEGACY|ANTI_WINDUP|NAV_MOTOR_STOP_OR_IDLE|COMPASS_CALIBRATED|ACCELEROMETER_CALIBRATED|AIRMODE_ACTIVE|AIRPLANE|ALTITUDE_CONTROL|MOVE_FORWARD_ONLY|SET_REVERSIBLE_MOTORS_FORWARD,IDLE,1,1,139,341,0,0,0,0,0,1,385,397,-1250,-1250,-1250,-1250,-1250,-1250,-1250,-1250,1778576784,5
352,179900679,3,39,0,9,3,0,0,0,0,0,0,6,90,0,1498,1500,1500,987,0,0,0,1050,12.570,354,-307,-1210,298,1023,-16,-13,-1,-14,-13,-1,513,-192,1819,66,9820,23,-1189,1467,1000,1579,1391,26,37,121,270,290,-196,0,1,18,-8,0,0,0,0,0,0,0,0,1,ARM,129,GPS_FIX_HOME|GPS_FIX|SMALL_ANGLE|FIXED_WING_LEGACY|ANTI_WINDUP|NAV_MOTOR_STOP_OR_IDLE|COMPASS_CALIBRATED|ACCELEROMETER_CALIBRATED|AIRMODE_ACTIVE|AIRPLANE|ALTITUDE_CONTROL|MOVE_FORWARD_ONLY|SET_REVERSIBLE_MOTORS_FORWARD,IDLE,1,1,139,341,0,0,0,0,0,1,385,397,-1250,-1250,-1250,-1250,-1250,-1250,-1250,-1250,1778576784,5
384,179917495,4,40,0,8,3,0,0,0,0,0,0,7,91,0,1500,1500,1500,987,0,0,0,1050,12.570,320,-281,-1226,298,1023,-13,-13,-1,-12,-13,0,524,-208,1799,68,9818,4,-1213,1462,1000,1580,1390,26,37,121,270,290,-196,0,1,18,-8,0,0,0,0,0,0,0,0,1,ARM,129,GPS_FIX_HOME|GPS_FIX|SMALL_ANGLE|FIXED_WING_LEGACY|ANTI_WINDUP|NAV_MOTOR_STOP_OR_IDLE|COMPASS_CALIBRATED|ACCELEROMETER_CALIBRATED|AIRMODE_ACTIVE|AIRPLANE|ALTITUDE_CONTROL|MOVE_FORWARD_ONLY|SET_REVERSIBLE_MOTORS_FORWARD,IDLE,1,1,139,341,0,0,0,0,0,1,385,397,-1250,-1250,-1250,-1250,-1250,-1250,-1250,-1250,1778576784,5
416,179934208,5,41,0,8,3,0,0,0,0,0,0,8,93,0,1500,1500,1500,987,0,0,0,1050,12.570,320,-281,-1226,298,1023,-12,-13,0,-12,-13,1,545,-262,1807,76,9815,-12,-1236,1459,1000,1580,1388,26,37,121,270,290,-196,-1,2,17,-9,0,0,0,0,0,0,0,0,1,ARM,129,GPS_FIX_HOME|GPS_FIX|SMALL_ANGLE|FIXED_WING_LEGACY|ANTI_WINDUP|NAV_MOTOR_STOP_OR_IDLE|COMPASS_CALIBRATED|ACCELEROMETER_CALIBRATED|AIRMODE_ACTIVE|AIRPLANE|ALTITUDE_CONTROL|MOVE_FORWARD_ONLY|SET_REVERSIBLE_MOTORS_FORWARD,IDLE,1,1,168,341,0,0,0,0,0,1,385,397,-1250,-1250,-1250,-1250,-1250,-1250,-1250,-1250,1778576784,5
448,179951153,6,42,0,9,3,-1,0,0,0,0,0,9,94,0,1500,1500,1500,987,0,0,0,1050,12.570,320,-281,-1226,298,1023,-13,-13,2,-14,-13,3,574,-320,1834,81,9813,-30,-1260,1458,1000,1580,1384,26,37,121,270,290,-196,-1,3,17,-10,0,0,0,0,0,0,0,0,1,ARM,129,GPS_FIX_HOME|GPS_FIX|SMALL_ANGLE|FIXED_WING_LEGACY|ANTI_WINDUP|NAV_MOTOR_STOP_OR_IDLE|COMPASS_CALIBRATED|ACCELEROMETER_CALIBRATED|AIRMODE_ACTIVE|AIRPLANE|ALTITUDE_CONTROL|MOVE_FORWARD_ONLY|SET_REVERSIBLE_MOTORS_FORWARD,IDLE,1,1,168,341,0,0,0,0,0,1,385,397,-1250,-1250,-1250,-1250,-1250,-1250,-1250,-1250,1778576784,5
480,179967625,6,42,0,10,2,-2,0,0,0,0,0,11,96,0,1500,1500,1500,987,0,0,0,1050,12.570,320,-281,-1226,298,1023,-15,-12,4,-16,-11,5,605,-348,1862,83,9809,-50,-1283,1459,1000,1578,1380,26,37,121,271,290,-196,-1,4,18,-11,0,0,0,0,0,0,0,0,1,ARM,129,GPS_FIX_HOME|GPS_FIX|SMALL_ANGLE|FIXED_WING_LEGACY|ANTI_WINDUP|NAV_MOTOR_STOP_OR_IDLE|COMPASS_CALIBRATED|ACCELEROMETER_CALIBRATED|AIRMODE_ACTIVE|AIRPLANE|ALTITUDE_CONTROL|MOVE_FORWARD_ONLY|SET_REVERSIBLE_MOTORS_FORWARD,IDLE,1,1,129,341,0,0,0,0,0,1,385,397,-1250,-1250,-1250,-1250,-1250,-1250,-1250,-1250,1778576784,5
512,179984237,7,43,0,11,2,-3,0,0,0,0,0,12,97,0,1500,1500,1500,987,0,0,0,1050,12.570,320,-281,-1226,298,1023,-16,-10,5,-16,-9,6,620,-357,1903,83,9806,-73,-1304,1461,1000,1577,1377,26,37,121,271,290,-196,-1,5,18,-11,0,0,0,0,0,0,0,0,1,ARM,129,GPS_FIX_HOME|GPS_FIX|SMALL_ANGLE|FIXED_WING_LEGACY|ANTI_WINDUP|NAV_MOTOR_STOP_OR_IDLE|COMPASS_CALIBRATED|ACCELEROMETER_CALIBRATED|AIRMODE_ACTIVE|AIRPLANE|ALTITUDE_CONTROL|MOVE_FORWARD_ONLY|SET_REVERSIBLE_MOTORS_FORWARD,IDLE,1,1,129,341,0,0,0,0,0,1,385,397,-1250,-1250,-1250,-1250,-1250,-1250,-1250,-1250,1778576784,5
544,180001100,8,44,0,11,2,-3,0,0,0,0,0,13,99,0,1498,1498,1500,987,0,0,0,1050,12.570,320,-281,-1226,298,1023,-15,-7,6,-14,-5,6,632,-326,1936,82,9803,-96,-1321,1466,1000,1576,1374,26,37,121,271,290,-196,-1,6,18,-11,0,0,0,0,0,0,0,0,1,ARM,129,GPS_FIX_HOME|GPS_FIX|SMALL_ANGLE|FIXED_WING_LEGACY|ANTI_WINDUP|NAV_MOTOR_STOP_OR_IDLE|COMPASS_CALIBRATED|ACCELEROMETER_CALIBRATED|AIRMODE_ACTIVE|AIRPLANE|ALTITUDE_CONTROL|MOVE_FORWARD_ONLY|SET_REVERSIBLE_MOTORS_FORWARD,IDLE,1,1,174,341,0,0,0,0,0,1,385,397,-1250,-1250,-1250,-1250,-1250,-1250,-1250,-1250,1778576784,5
576,180017982,9,44,0,10,2,-3,0,0,0,0,0,15,100,0,1500,1500,1500,987,0,0,0,1050,12.570,304,-257,-1222,298,1023,-13,-3,6,-12,-1,5,621,-307,1982,82,9800,-116,-1333,1471,1000,1577,1373,26,37,121,271,290,-196,-1,6,18,-11,0,0,0,0,0,0,0,0,1,ARM,129,GPS_FIX_HOME|GPS_FIX|SMALL_ANGLE|FIXED_WING_LEGACY|ANTI_WINDUP|NAV_MOTOR_STOP_OR_IDLE|COMPASS_CALIBRATED|ACCELEROMETER_CALIBRATED|AIRMODE_ACTIVE|AIRPLANE|ALTITUDE_CONTROL|MOVE_FORWARD_ONLY|SET_REVERSIBLE_MOTORS_FORWARD,IDLE,1,1,174,341,0,0,0,0,0,1,385,397,-1250,-1250,-1250,-1250,-1250,-1250,-1250,-1250,1778576784,5
608,180034718,10,44,0,10,1,-3,0,0,0,0,0,16,101,0,1500,1500,1500,987,0,0,0,1050,12.570,304,-257,-1222,306,1023,-11,2,6,-10,4,6,598,-340,2026,83,9799,-135,-1337,1476,1000,1577,1371,26,37,121,271,290,-196,-2,7,19,-10,0,0,0,0,0,0,0,0,1,ARM,129,GPS_FIX_HOME|GPS_FIX|SMALL_ANGLE|FIXED_WING_LEGACY|ANTI_WINDUP|NAV_MOTOR_STOP_OR_IDLE|COMPASS_CALIBRATED|ACCELEROMETER_CALIBRATED|AIRMODE_ACTIVE|AIRPLANE|ALTITUDE_CONTROL|MOVE_FORWARD_ONLY|SET_REVERSIBLE_MOTORS_FORWARD,IDLE,1,1,174,341,0,0,0,0,0,1,385,397,-1250,-1250,-1250,-1250,-1250,-1250,-1250,-1250,1778576784,5
640,180051447,11,45,0,9,1,-4,0,0,0,0,0,17,101,0,1500,1500,1500,987,0,0,0,1050,12.570,304,-257,-1222,306,1023,-9,6,7,-8,8,7,576,-393,2043,83,9798,-152,-1334,1481,1000,1577,1371,26,37,121,271,290,-196,-2,8,19,-9,0,0,0,0,0,0,0,0,1,ARM,129,GPS_FIX_HOME|GPS_FIX|SMALL_ANGLE|FIXED_WING_LEGACY|ANTI_WINDUP|NAV_MOTOR_STOP_OR_IDLE|COMPASS_CALIBRATED|ACCELEROMETER_CALIBRATED|AIRMODE_ACTIVE|AIRPLANE|ALTITUDE_CONTROL|MOVE_FORWARD_ONLY|SET_REVERSIBLE_MOTORS_FORWARD,IDLE,1,1,128,341,0,0,0,0,0,1,385,397,-1250,-1250,-1250,-1250,-1250,-1250,-1250,-1250,1778576784,5
672,180068194,11,45,0,9,1,-5,0,0,0,0,0,18,101,0,1500,1500,1500,987,0,0,0,1050,12.570,304,-257,-1222,306,1023,-8,10,9,-7,10,10,567,-433,2031,80,9798,-168,-1324,1490,1000,1576,1370,26,37,121,271,290,-196,-2,8,20,-7,0,0,0,0,0,0,0,0,1,ARM,129,GPS_FIX_HOME|GPS_FIX|SMALL_ANGLE|FIXED_WING_LEGACY|ANTI_WINDUP|NAV_MOTOR_STOP_OR_IDLE|COMPASS_CALIBRATED|ACCELEROMETER_CALIBRATED|AIRMODE_ACTIVE|AIRPLANE|ALTITUDE_CONTROL|MOVE_FORWARD_ONLY|SET_REVERSIBLE_MOTORS_FORWARD,IDLE,1,1,128,341,0,0,0,0,0,1,385,397,-1250,-1250,-1250,-1250,-1250,-1250,-1250,-1250,1778576784,5
704,180084703,12,44,0,9,1,-7,0,0,0,0,0,19,101,0,1500,1500,1500,987,0,0,0,1050,12.570,304,-257,-1222,306,1023,-7,11,11,-7,10,12,567,-467,2002,78,9797,-184,-1312,1501,1000,1574,1370,26,37,121,271,290,-196,-2,9,21,-6,0,0,0,0,0,0,0,0,1,ARM,129,GPS_FIX_HOME|GPS_FIX|SMALL_ANGLE|FIXED_WING_LEGACY|ANTI_WINDUP|NAV_MOTOR_STOP_OR_IDLE|COMPASS_CALIBRATED|ACCELEROMETER_CALIBRATED|AIRMODE_ACTIVE|AIRPLANE|ALTITUDE_CONTROL|MOVE_FORWARD_ONLY|SET_REVERSIBLE_MOTORS_FORWARD,IDLE,1,1,159,341,0,0,0,0,0,1,385,397,-1250,-1250,-1250,-1250,-1250,-1250,-1250,-1250,1778576784,5
736,180101286,12,44,0,9,1,-8,0,0,0,0,0,20,100,0,1500,1500,1500,987,0,0,0,1050,12.570,304,-257,-1222,306,1023,-7,11,13,-6,11,13,552,-477,1998,74,9797,-200,-1299,1517,1000,1572,1370,26,37,121,271,291,-196,-2,9,22,-5,0,0,0,0,0,0,0,0,1,ARM,129,GPS_FIX_HOME|GPS_FIX|SMALL_ANGLE|FIXED_WING_LEGACY|ANTI_WINDUP|NAV_MOTOR_STOP_OR_IDLE|COMPASS_CALIBRATED|ACCELEROMETER_CALIBRATED|AIRMODE_ACTIVE|AIRPLANE|ALTITUDE_CONTROL|MOVE_FORWARD_ONLY|SET_REVERSIBLE_MOTORS_FORWARD,IDLE,1,1,159,341,0,0,0,0,0,1,385,397,-1250,-1250,-1250,-1250,-1250,-1250,-1250,-1250,1778576784,5
768,180118158,13,44,0,8,1,-8,0,0,0,0,0,21,99,0,1498,1500,1500,987,0,0,0,1050,12.570,298,-241,-1223,306,1023,-5,11,13,-4,12,13,515,-446,2019,71,9796,-216,-1284,1534,1000,1570,1370,26,37,121,271,291,-196,-2,9,22,-5,0,0,0,0,0,0,0,0,1,ARM,129,GPS_FIX_HOME|GPS_FIX|SMALL_ANGLE|FIXED_WING_LEGACY|ANTI_WINDUP|NAV_MOTOR_STOP_OR_IDLE|COMPASS_CALIBRATED|ACCELEROMETER_CALIBRATED|AIRMODE_ACTIVE|AIRPLANE|ALTITUDE_CONTROL|MOVE_FORWARD_ONLY|SET_REVERSIBLE_MOTORS_FORWARD,IDLE,1,1,130,341,0,0,0,0,0,1,385,397,-1250,-1250,-1250,-1250,-1250,-1250,-1250,-1250,1778576784,5
800,180135008,14,43,0,7,1,-7,0,0,0,0,0,22,98,0,1500,1500,1500,987,0,0,0,1050,12.570,298,-241,-1223,306,1023,-2,13,12,-1,14,10,481,-398,2047,74,9795,-228,-1267,1550,1000,1570,1372,26,37,121,271,291,-196,-2,10,23,-4,0,0,0,0,0,0,0,0,1,ARM,129,GPS_FIX_HOME|GPS_FIX|SMALL_ANGLE|FIXED_WING_LEGACY|ANTI_WINDUP|NAV_MOTOR_STOP_OR_IDLE|COMPASS_CALIBRATED|ACCELEROMETER_CALIBRATED|AIRMODE_ACTIVE|AIRPLANE|ALTITUDE_CONTROL|MOVE_FORWARD_ONLY|SET_REVERSIBLE_MOTORS_FORWARD,IDLE,1,1,118,341,0,0,0,0,0,1,384,397,-1250,-1250,-1250,-1250,-1250,-1250,-1250,-1250,1778576784,5
832,180151826,14,42,0,6,1,-5,0,0,0,0,0,23,96,0,1498,1500,1500,987,0,0,0,1050,12.570,298,-241,-1223,306,1023,0,15,9,2,16,7,445,-354,2075,78,9795,-235,-1247,1564,1000,1569,1373,26,37,121,271,291,-196,-3,10,24,-3,0,0,0,0,0,0,0,0,1,ARM,129,GPS_FIX_HOME|GPS_FIX|SMALL_ANGLE|FIXED_WING_LEGACY|ANTI_WINDUP|NAV_MOTOR_STOP_OR_IDLE|COMPASS_CALIBRATED|ACCELEROMETER_CALIBRATED|AIRMODE_ACTIVE|AIRPLANE|ALTITUDE_CONTROL|MOVE_FORWARD_ONLY|SET_REVERSIBLE_MOTORS_FORWARD,IDLE,1,1,130,341,0,0,0,0,0,1,384,397,-1250,-1250,-1250,-1250,-1250,-1250,-1250,-1250,1778576784,5
864,180168455,14,42,0,5,1,-3,0,0,0,0,0,23,95,0,1500,1500,1500,987,0,0,0,1050,12.570,298,-241,-1223,306,1023,2,17,6,3,18,4,410,-323,2081,79,9797,-239,-1223,1573,1000,1567,1375,26,37,121,271,291,-196,-3,10,24,-1,0,0,0,0,0,0,0,0,1,ARM,129,GPS_FIX_HOME|GPS_FIX|SMALL_ANGLE|FIXED_WING_LEGACY|ANTI_WINDUP|NAV_MOTOR_STOP_OR_IDLE|COMPASS_CALIBRATED|ACCELEROMETER_CALIBRATED|AIRMODE_ACTIVE|AIRPLANE|ALTITUDE_CONTROL|MOVE_FORWARD_ONLY|SET_REVERSIBLE_MOTORS_FORWARD,IDLE,1,1,160,341,0,0,0,0,0,1,384,397,-1250,-1250,-1250,-1250,-1250,-1250,-1250,-1250,1778576784,5
896,180185202,14,41,0,5,1,-1,0,0,0,0,0,24,93,0,1500,1500,1500,987,0,0,0,1050,12.570,298,-241,-1223,306,1023,3,18,3,2,17,1,395,-316,2056,75,9799,-240,-1197,1578,1000,1565,1377,26,37,121,271,291,-196,-3,10,24,0,0,0,0,0,0,0,0,0,1,ARM,129,GPS_FIX_HOME|GPS_FIX|SMALL_ANGLE|FIXED_WING_LEGACY|ANTI_WINDUP|NAV_MOTOR_STOP_OR_IDLE|COMPASS_CALIBRATED|ACCELEROMETER_CALIBRATED|AIRMODE_ACTIVE|AIRPLANE|ALTITUDE_CONTROL|MOVE_FORWARD_ONLY|SET_REVERSIBLE_MOTORS_FORWARD,IDLE,1,1,160,341,0,0,0,0,0,1,384,397,-1250,-1250,-1250,-1250,-1250,-1250,-1250,-1250,1778576784,5
928,180201747,14,40,0,5,1,0,0,0,0,0,0,24,91,0,1500,1500,1500,987,0,0,0,1050,12.570,298,-241,-1223,306,1023,2,16,0,2,15,-1,388,-323,2010,73,9802,-242,-1171,1579,1000,1564,1378,26,37,121,271,291,-196,-3,10,24,0,0,0,0,0,0,0,0,0,1,ARM,129,GPS_FIX_HOME|GPS_FIX|SMALL_ANGLE|FIXED_WING_LEGACY|ANTI_WINDUP|NAV_MOTOR_STOP_OR_IDLE|COMPASS_CALIBRATED|ACCELEROMETER_CALIBRATED|AIRMODE_ACTIVE|AIRPLANE|ALTITUDE_CONTROL|MOVE_FORWARD_ONLY|SET_REVERSIBLE_MOTORS_FORWARD,IDLE,1,1,148,341,0,0,0,0,0,1,384,397,-1250,-1250,-1250,-1250,-1250,-1250,-1250,-1250,1778576784,5
960,180218580,14,39,0,6,1,1,0,0,0,0,0,24,89,0,1498,1500,1500,987,0,0,0,1050,12.570,336,-231,-1218,306,1023,2,13,-2,1,11,-3,373,-326,1973,71,9805,-243,-1150,1577,1000,1561,1379,26,37,121,271,291,-196,-3,9,24,0,0,0,0,0,0,0,0,0,1,ARM,129,GPS_FIX_HOME|GPS_FIX|SMALL_ANGLE|FIXED_WING_LEGACY|ANTI_WINDUP|NAV_MOTOR_STOP_OR_IDLE|COMPASS_CALIBRATED|ACCELEROMETER_CALIBRATED|AIRMODE_ACTIVE|AIRPLANE|ALTITUDE_CONTROL|MOVE_FORWARD_ONLY|SET_REVERSIBLE_MOTORS_FORWARD,IDLE,1,1,113,341,0,0,0,0,0,1,384,397,-1250,-1250,-1250,-1250,-1250,-1250,-1250,-1250,1778576784,5
992,180235458,14,38,0,6,2,2,0,0,0,0,0,24,88,0,1498,1500,1500,987,0,0,0,1050,12.570,336,-231,-1218,306,1023,1,9,-4,0,8,-4,358,-323,1947,69,9807,-245,-1134,1571,1000,1560,1380,26,37,121,271,291,-196,-2,8,24,0,0,0,0,0,0,0,0,0,1,ARM,129,GPS_FIX_HOME|GPS_FIX|SMALL_ANGLE|FIXED_WING_LEGACY|ANTI_WINDUP|NAV_MOTOR_STOP_OR_IDLE|COMPASS_CALIBRATED|ACCELEROMETER_CALIBRATED|AIRMODE_ACTIVE|AIRPLANE|ALTITUDE_CONTROL|MOVE_FORWARD_ONLY|SET_REVERSIBLE_MOTORS_FORWARD,IDLE,1,1,113,341,0,0,0,0,0,1,384,397,-1250,-1250,-1250,-1250,-1250,-1250,-1250,-1250,1778576784,5
1024,180251988,14,38,0,7,2,3,0,0,0,0,0,24,86,0,1500,1500,1500,987,0,0,0,1050,12.570,336,-231,-1218,306,1023,0,6,-5,-1,5,-6,335,-306,1949,66,9810,-247,-1123,1564,1000,1558,1380,26,37,121,271,291,-196,-2,8,24,1,0,0,0,0,0,0,0,0,1,ARM,129,GPS_FIX_HOME|GPS_FIX|SMALL_ANGLE|FIXED_WING_LEGACY|ANTI_WINDUP|NAV_MOTOR_STOP_OR_IDLE|COMPASS_CALIBRATED|ACCELEROMETER_CALIBRATED|AIRMODE_ACTIVE|AIRPLANE|ALTITUDE_CONTROL|MOVE_FORWARD_ONLY|SET_REVERSIBLE_MOTORS_FORWARD,IDLE,1,1,113,341,0,0,0,0,0,1,384,397,-1250,-1250,-1250,-1250,-1250,-1250,-1250,-1250,1778576784,5
1056,180268607,14,37,0,7,2,4,0,0,0,0,0,24,85,0,1500,1500,1500,987,0,0,0,1050,12.570,336,-231,-1218,314,1023,-1,3,-7,-1,2,-7,327,-301,1956,61,9812,-249,-1117,1554,1000,1557,1381,26,37,121,271,291,-196,-2,7,24,1,0,0,0,0,0,0,0,0,1,ARM,129,GPS_FIX_HOME|GPS_FIX|SMALL_ANGLE|FIXED_WING_LEGACY|ANTI_WINDUP|NAV_MOTOR_STOP_OR_IDLE|COMPASS_CALIBRATED|ACCELEROMETER_CALIBRATED|AIRMODE_ACTIVE|AIRPLANE|ALTITUDE_CONTROL|MOVE_FORWARD_ONLY|SET_REVERSIBLE_MOTORS_FORWARD,IDLE,1,1,160,341,0,0,0,0,0,1,384,397,-1250,-1250,-1250,-1250,-1250,-1250,-1250,-1250,1778576784,5
1088,180285703,14,37,0,7,3,5,0,0,0,0,0,24,84,0,1500,1500,1500,987,0,0,0,1050,12.560,336,-231,-1218,314,1023,-1,2,-8,0,1,-9,329,-298,1955,57,9814,-252,-1114,1542,1000,1556,1382,26,37,121,271,291,-196,-2,6,24,1,0,0,0,0,0,0,0,0,1,ARM,129,GPS_FIX_HOME|GPS_FIX|SMALL_ANGLE|FIXED_WING_LEGACY|ANTI_WINDUP|NAV_MOTOR_STOP_OR_IDLE|COMPASS_CALIBRATED|ACCELEROMETER_CALIBRATED|AIRMODE_ACTIVE|AIRPLANE|ALTITUDE_CONTROL|MOVE_FORWARD_ONLY|SET_REVERSIBLE_MOTORS_FORWARD,IDLE,1,1,160,341,0,0,0,0,0,1,384,397,-1250,-1250,-1250,-1250,-1250,-1250,-1250,-1250,1778576784,5
1120,180302205,14,37,0,6,3,6,0,0,0,0,0,24,84,0,1500,1500,1500,987,0,0,0,1050,12.570,336,-231,-1218,314,1023,1,1,-10,2,1,-11,334,-296,1950,52,9816,-252,-1113,1529,1000,1557,1383,26,37,121,271,291,-196,-2,6,24,1,0,0,0,0,0,0,0,0,1,ARM,129,GPS_FIX_HOME|GPS_FIX|SMALL_ANGLE|FIXED_WING_LEGACY|ANTI_WINDUP|NAV_MOTOR_STOP_OR_IDLE|COMPASS_CALIBRATED|ACCELEROMETER_CALIBRATED|AIRMODE_ACTIVE|AIRPLANE|ALTITUDE_CONTROL|MOVE_FORWARD_ONLY|SET_REVERSIBLE_MOTORS_FORWARD,IDLE,1,1,123,341,0,0,0,0,0,1,384,397,-1250,-1250,-1250,-1250,-1250,-1250,-1250,-1250,1778576784,5
1152,180319068,14,37,0,5,3,6,0,0,0,0,0,23,83,0,1500,1500,1500,987,0,0,0,1050,12.570,311,-238,-1206,314,1023,3,1,-11,4,1,-11,358,-291,1946,49,9819,-249,-1112,1514,1000,1558,1384,26,37,121,271,291,-196,-2,5,23,1,0,0,0,0,0,0,0,0,1,ARM,129,GPS_FIX_HOME|GPS_FIX|SMALL_ANGLE|FIXED_WING_LEGACY|ANTI_WINDUP|NAV_MOTOR_STOP_OR_IDLE|COMPASS_CALIBRATED|ACCELEROMETER_CALIBRATED|AIRMODE_ACTIVE|AIRPLANE|ALTITUDE_CONTROL|MOVE_FORWARD_ONLY|SET_REVERSIBLE_MOTORS_FORWARD,IDLE,1,1,123,341,0,0,0,0,0,1,385,397,-1250,-1250,-1250,-1250,-1250,-1250,-1250,-1250,1778576784,5
1184,180335974,14,37,0,5,3,6,0,0,0,0,0,23,83,0,1497,1500,1500,987,0,0,0,1050,12.570,311,-238,-1206,314,1023,4,2,-10,4,1,-10,389,-301,1949,49,9822,-244,-1110,1498,1000,1558,1386,26,37,121,272,291,-196,-2,4,23,1,0,0,0,0,0,0,0,0,1,ARM,129,GPS_FIX_HOME|GPS_FIX|SMALL_ANGLE|FIXED_WING_LEGACY|ANTI_WINDUP|NAV_MOTOR_STOP_OR_IDLE|COMPASS_CALIBRATED|ACCELEROMETER_CALIBRATED|AIRMODE_ACTIVE|AIRPLANE|ALTITUDE_CONTROL|MOVE_FORWARD_ONLY|SET_REVERSIBLE_MOTORS_FORWARD,IDLE,1,1,136,341,0,0,0,0,0,1,385,397,-1250,-1250,-1250,-1250,-1250,-1250,-1250,-1250,1778576784,5
1216,180352952,14,36,0,5,3,5,0,0,0,0,0,23,83,0,1498,1500,1500,987,0,0,0,1050,12.570,311,-238,-1206,314,1023,4,2,-9,3,2,-8,422,-315,1945,48,9824,-238,-1108,1485,1000,1558,1386,26,37,121,272,291,-196,-2,4,23,1,0,0,0,0,0,0,0,0,1,ARM,129,GPS_FIX_HOME|GPS_FIX|SMALL_ANGLE|FIXED_WING_LEGACY|ANTI_WINDUP|NAV_MOTOR_STOP_OR_IDLE|COMPASS_CALIBRATED|ACCELEROMETER_CALIBRATED|AIRMODE_ACTIVE|AIRPLANE|ALTITUDE_CONTROL|MOVE_FORWARD_ONLY|SET_REVERSIBLE_MOTORS_FORWARD,IDLE,1,1,169,341,0,0,0,0,0,1,385,397,-1250,-1250,-1250,-1250,-1250,-1250,-1250,-1250,1778576784,5
1248,180369896,14,36,0,5,3,3,0,0,0,0,0,23,83,0,1500,1500,1500,987,0,0,0,1050,12.570,311,-238,-1206,306,1023,2,1,-6,2,1,-5,432,-332,1944,47,9826,-234,-1107,1474,1000,1558,1386,26,37,121,272,291,-196,-2,4,23,1,0,0,0,0,0,0,0,0,1,ARM,129,GPS_FIX_HOME|GPS_FIX|SMALL_ANGLE|FIXED_WING_LEGACY|ANTI_WINDUP|NAV_MOTOR_STOP_OR_IDLE|COMPASS_CALIBRATED|ACCELEROMETER_CALIBRATED|AIRMODE_ACTIVE|AIRPLANE|ALTITUDE_CONTROL|MOVE_FORWARD_ONLY|SET_REVERSIBLE_MOTORS_FORWARD,IDLE,1,1,169,341,0,0,0,0,0,1,385,397,-1250,-1250,-1250,-1250,-1250,-1250,-1250,-1250,1778576784,5
1280,180386408,14,36,0,5,3,2,0,0,0,0,0,22,83,0,1500,1500,1500,987,0,0,0,1050,12.570,311,-238,-1206,306,1023,2,2,-3,1,2,-2,436,-349,1944,45,9827,-233,-1105,1467,1000,1558,1386,26,37,121,272,291,-196,-2,5,23,1,0,0,0,0,0,0,0,0,1,ARM,129,GPS_FIX_HOME|GPS_FIX|SMALL_ANGLE|FIXED_WING_LEGACY|ANTI_WINDUP|NAV_MOTOR_STOP_OR_IDLE|COMPASS_CALIBRATED|ACCELEROMETER_CALIBRATED|AIRMODE_ACTIVE|AIRPLANE|ALTITUDE_CONTROL|MOVE_FORWARD_ONLY|SET_REVERSIBLE_MOTORS_FORWARD,IDLE,1,1,129,341,0,0,0,0,0,1,385,397,-1250,-1250,-1250,-1250,-1250,-1250,-1250,-1250,1778576784,5
1312,180402892,13,36,0,5,3,0,0,0,0,0,0,22,83,0,1500,1500,1500,987,0,0,0,1050,12.570,311,-238,-1206,306,1023,1,2,-1,1,2,0,430,-341,1949,42,9828,-232,-1104,1464,1000,1558,1386,26,37,121,272,291,-196,-2,5,23,1,0,0,0,0,0,0,0,0,1,ARM,129,GPS_FIX_HOME|GPS_FIX|SMALL_ANGLE|FIXED_WING_LEGACY|ANTI_WINDUP|NAV_MOTOR_STOP_OR_IDLE|COMPASS_CALIBRATED|ACCELEROMETER_CALIBRATED|AIRMODE_ACTIVE|AIRPLANE|ALTITUDE_CONTROL|MOVE_FORWARD_ONLY|SET_REVERSIBLE_MOTORS_FORWARD,IDLE,1,1,122,341,0,0,0,0,0,1,385,397,-1250,-1250,-1250,-1250,-1250,-1250,-1250,-1250,1778576784,5
1344,180419664,13,36,0,5,3,0,0,0,0,0,0,22,83,0,1500,1500,1500,987,0,0,0,1050,12.570,346,-222,-1196,306,1023,2,2,0,2,3,1,429,-320,1961,39,9828,-231,-1101,1463,1000,1558,1386,26,37,121,272,291,-196,-2,5,23,1,0,0,0,0,0,0,0,0,1,ARM,129,GPS_FIX_HOME|GPS_FIX|SMALL_ANGLE|FIXED_WING_LEGACY|ANTI_WINDUP|NAV_MOTOR_STOP_OR_IDLE|COMPASS_CALIBRATED|ACCELEROMETER_CALIBRATED|AIRMODE_ACTIVE|AIRPLANE|ALTITUDE_CONTROL|MOVE_FORWARD_ONLY|SET_REVERSIBLE_MOTORS_FORWARD,IDLE,1,1,122,341,0,0,0,0,0,1,385,397,-1250,-1250,-1250,-1250,-1250,-1250,-1250,-1250,1778576784,5
1376,180436255,13,36,0,5,3,0,0,0,0,0,0,22,83,0,1500,1500,1500,987,0,0,0,1050,12.570,346,-222,-1196,306,1023,3,3,1,4,4,2,419,-311,1974,38,9829,-229,-1096,1463,1000,1559,1387,26,37,121,272,291,-196,-2,6,23,1,0,0,0,0,0,0,0,0,1,ARM,129,GPS_FIX_HOME|GPS_FIX|SMALL_ANGLE|FIXED_WING_LEGACY|ANTI_WINDUP|NAV_MOTOR_STOP_OR_IDLE|COMPASS_CALIBRATED|ACCELEROMETER_CALIBRATED|AIRMODE_ACTIVE|AIRPLANE|ALTITUDE_CONTROL|MOVE_FORWARD_ONLY|SET_REVERSIBLE_MOTORS_FORWARD,IDLE,1,1,158,341,0,0,0,0,0,1,385,397,-1250,-1250,-1250,-1250,-1250,-1250,-1250,-1250,1778576784,5
1408,180453108,13,36,0,4,3,-1,0,0,0,0,0,22,82,0,1498,1500,1500,987,0,0,0,1050,12.570,346,-222,-1196,306,1023,5,4,2,5,5,2,410,-298,1985,37,9829,-226,-1090,1465,1000,1559,1389,26,37,121,272,291,-196,-2,6,23,2,0,0,0,0,0,0,0,0,1,ARM,129,GPS_FIX_HOME|GPS_FIX|SMALL_ANGLE|FIXED_WING_LEGACY|ANTI_WINDUP|NAV_MOTOR_STOP_OR_IDLE|COMPASS_CALIBRATED|ACCELEROMETER_CALIBRATED|AIRMODE_ACTIVE|AIRPLANE|ALTITUDE_CONTROL|MOVE_FORWARD_ONLY|SET_REVERSIBLE_MOTORS_FORWARD,IDLE,1,1,158,341,0,0,0,0,0,1,385,397,-1250,-1250,-1250,-1250,-1250,-1250,-1250,-1250,1778576784,5
1440,180469976,13,36,0,3,3,-1,0,0,0,0,0,21,82,0,1500,1500,1500,987,0,0,0,1050,12.570,346,-222,-1196,314,1023,6,5,3,6,5,3,400,-296,1994,35,9830,-221,-1082,1468,1000,1560,1390,26,37,121,272,291,-196,-2,6,23,2,0,0,0,0,0,0,0,0,1,ARM,129,GPS_FIX_HOME|GPS_FIX|SMALL_ANGLE|FIXED_WING_LEGACY|ANTI_WINDUP|NAV_MOTOR_STOP_OR_IDLE|COMPASS_CALIBRATED|ACCELEROMETER_CALIBRATED|AIRMODE_ACTIVE|AIRPLANE|ALTITUDE_CONTROL|MOVE_FORWARD_ONLY|SET_REVERSIBLE_MOTORS_FORWARD,IDLE,1,1,113,341,0,0,0,0,0,1,385,397,-1250,-1250,-1250,-1250,-1250,-1250,-1250,-1250,1778576784,5
1472,180486662,13,36,0,3,3,-2,0,0,0,0,0,21,81,0,1500,1500,1500,987,0,0,0,1050,12.570,346,-222,-1196,306,1023,6,5,3,6,5,4,387,-315,1997,35,9830,-216,-1073,1472,1000,1559,1391,26,37,121,272,291,-195,-1,6,23,3,0,0,0,0,0,0,0,0,1,ARM,129,GPS_FIX_HOME|GPS_FIX|SMALL_ANGLE|FIXED_WING_LEGACY|ANTI_WINDUP|NAV_MOTOR_STOP_OR_IDLE|COMPASS_CALIBRATED|ACCELEROMETER_CALIBRATED|AIRMODE_ACTIVE|AIRPLANE|ALTITUDE_CONTROL|MOVE_FORWARD_ONLY|SET_REVERSIBLE_MOTORS_FORWARD,IDLE,1,1,113,341,0,0,0,0,0,1,385,397,-1250,-1250,-1250,-1250,-1250,-1250,-1250,-1250,1778576784,5
1504,180503198,13,36,0,3,3,-2,0,0,0,0,0,21,81,0,1500,1500,1500,987,0,0,0,1050,12.570,346,-222,-1196,306,1023,6,5,4,6,5,4,372,-330,1996,34,9831,-210,-1064,1477,1000,1560,1392,26,37,121,272,291,-195,-1,6,23,3,0,0,0,0,0,0,0,0,1,ARM,129,GPS_FIX_HOME|GPS_FIX|SMALL_ANGLE|FIXED_WING_LEGACY|ANTI_WINDUP|NAV_MOTOR_STOP_OR_IDLE|COMPASS_CALIBRATED|ACCELEROMETER_CALIBRATED|AIRMODE_ACTIVE|AIRPLANE|ALTITUDE_CONTROL|MOVE_FORWARD_ONLY|SET_REVERSIBLE_MOTORS_FORWARD,IDLE,1,1,113,341,0,0,0,0,0,1,384,397,-1250,-1250,-1250,-1250,-1250,-1250,-1250,-1250,1778576784,5
1536,180520193,13,35,0,3,3,-2,0,0,0,0,0,20,80,0,1500,1500,1500,987,0,0,0,1050,12.570,340,-227,-1212,306,1023,6,5,4,6,6,4,370,-334,1999,32,9831,-204,-1055,1483,1000,1559,1393,26,37,121,272,291,-195,-1,6,23,3,0,0,0,0,0,0,0,0,1,ARM,129,GPS_FIX_HOME|GPS_FIX|SMALL_ANGLE|FIXED_WING_LEGACY|ANTI_WINDUP|NAV_MOTOR_STOP_OR_IDLE|COMPASS_CALIBRATED|ACCELEROMETER_CALIBRATED|AIRMODE_ACTIVE|AIRPLANE|ALTITUDE_CONTROL|MOVE_FORWARD_ONLY|SET_REVERSIBLE_MOTORS_FORWARD,IDLE,1,1,142,341,0,0,0,0,0,1,384,397,-1250,-1250,-1250,-1250,-1250,-1250,-1250,-1250,1778576784,5
1568,180536886,12,35,0,3,3,-2,0,0,0,0,0,20,80,0,1500,1500,1500,987,0,0,0,1050,12.570,340,-227,-1212,306,1023,6,5,4,7,5,4,360,-322,2003,31,9831,-198,-1045,1488,1000,1560,1394,26,37,121,272,291,-195,-1,5,24,4,0,0,0,0,0,0,0,0,1,ARM,129,GPS_FIX_HOME|GPS_FIX|SMALL_ANGLE|FIXED_WING_LEGACY|ANTI_WINDUP|NAV_MOTOR_STOP_OR_IDLE|COMPASS_CALIBRATED|ACCELEROMETER_CALIBRATED|AIRMODE_ACTIVE|AIRPLANE|ALTITUDE_CONTROL|MOVE_FORWARD_ONLY|SET_REVERSIBLE_MOTORS_FORWARD,IDLE,1,1,160,341,0,0,0,0,0,1,384,397,-1250,-1250,-1250,-1250,-1250,-1250,-1250,-1250,1778576784,5
1600,180553544,12,35,0,2,3,-2,0,0,0,0,0,20,79,0,1500,1500,1500,987,0,0,0,1050,12.570,340,-227,-1212,306,1023,6,5,3,6,5,3,359,-310,2007,30,9832,-192,-1036,1494,1000,1559,1395,26,37,121,272,291,-195,-1,5,24,4,0,0,0,0,0,0,0,0,1,ARM,129,GPS_FIX_HOME|GPS_FIX|SMALL_ANGLE|FIXED_WING_LEGACY|ANTI_WINDUP|NAV_MOTOR_STOP_OR_IDLE|COMPASS_CALIBRATED|ACCELEROMETER_CALIBRATED|AIRMODE_ACTIVE|AIRPLANE|ALTITUDE_CONTROL|MOVE_FORWARD_ONLY|SET_REVERSIBLE_MOTORS_FORWARD,IDLE,1,1,112,341,0,0,0,0,0,1,384,397,-1250,-1250,-1250,-1250,-1250,-1250,-1250,-1250,1778576784,5
1632,180570126,12,34,0,3,3,-1,0,0,0,0,0,19,78,0,1500,1498,1500,987,0,0,0,1050,12.570,340,-227,-1212,306,1023,6,5,2,6,6,1,352,-304,2010,30,9832,-186,-1027,1497,1000,1560,1396,26,37,121,272,291,-195,-1,5,24,5,0,0,0,0,0,0,0,0,1,ARM,129,GPS_FIX_HOME|GPS_FIX|SMALL_ANGLE|FIXED_WING_LEGACY|ANTI_WINDUP|NAV_MOTOR_STOP_OR_IDLE|COMPASS_CALIBRATED|ACCELEROMETER_CALIBRATED|AIRMODE_ACTIVE|AIRPLANE|ALTITUDE_CONTROL|MOVE_FORWARD_ONLY|SET_REVERSIBLE_MOTORS_FORWARD,IDLE,1,1,112,341,0,0,0,0,0,1,384,397,-1250,-1250,-1250,-1250,-1250,-1250,-1250,-1250,1778576784,5
1664,180586642,12,34,0,3,3,0,0,0,0,0,0,19,78,0,1500,1470,1500,987,0,0,0,1050,12.570,340,-227,-1212,314,1023,6,6,1,5,6,0,337,-296,2014,30,9833,-180,-1017,1499,1000,1559,1397,26,37,121,272,291,-195,-1,5,24,5,0,0,0,0,0,0,0,0,1,ARM,129,GPS_FIX_HOME|GPS_FIX|SMALL_ANGLE|FIXED_WING_LEGACY|NAV_MOTOR_STOP_OR_IDLE|COMPASS_CALIBRATED|ACCELEROMETER_CALIBRATED|AIRMODE_ACTIVE|AIRPLANE|ALTITUDE_CONTROL|MOVE_FORWARD_ONLY|SET_REVERSIBLE_MOTORS_FORWARD,IDLE,1,1,112,341,0,0,0,0,0,1,384,397,-1250,-1250,-1250,-1250,-1250,-1250,-1250,-1250,1778576784,5
1696,180603116,11,31,0,2,3,0,0,0,0,0,0,19,71,0,1501,1348,1500,987,0,-123,0,1050,12.570,340,-227,-1212,314,1023,6,5,-1,6,5,-2,324,-290,2006,33,9834,-174,-1008,1499,1000,1554,1404,1,37,121,272,291,-195,-1,4,24,5,0,0,0,0,0,0,0,0,1,ARM,1,GPS_FIX_HOME|GPS_FIX|SMALL_ANGLE|FIXED_WING_LEGACY|COMPASS_CALIBRATED|ACCELEROMETER_CALIBRATED|AIRMODE_ACTIVE|AIRPLANE|ALTITUDE_CONTROL|MOVE_FORWARD_ONLY|SET_REVERSIBLE_MOTORS_FORWARD,IDLE,1,1,151,341,0,0,0,0,0,1,384,397,-1250,-1250,-1250,-1250,-1250,-1250,-1250,-1250,1778576784,5
1728,180620169,0,-43,0,-3,-2,1,0,0,0,0,0,0,-97,0,1501,1283,1500,987,0,-180,0,1050,12.570,362,-243,-1202,306,1023,6,4,-3,7,3,-4,323,-270,1976,37,9835,-167,-1000,1495,1000,1404,1602,1,37,121,272,291,-195,-1,4,24,6,0,0,0,0,0,0,0,0,1,ARM,0,GPS_FIX_HOME|GPS_FIX|SMALL_ANGLE|FIXED_WING_LEGACY|COMPASS_CALIBRATED|ACCELEROMETER_CALIBRATED|AIRMODE_ACTIVE|AIRPLANE|ALTITUDE_CONTROL|MOVE_FORWARD_ONLY|SET_REVERSIBLE_MOTORS_FORWARD,IDLE,1,1,151,341,0,0,0,0,0,1,384,397,-1250,-1250,-1250,-1250,-1250,-1250,-1250,-1250,1778576784,5
1760,180637073,0,-53,0,-3,0,3,0,0,0,0,0,0,-119,0,1501,1240,1500,987,0,-221,0,1050,12.570,362,-243,-1202,306,1023,7,1,-5,7,0,-6,318,-259,1945,50,9837,-159,-995,1490,1000,1383,1623,1,37,121,272,291,-195,0,3,25,6,0,0,0,0,0,0,0,0,1,ARM,0,GPS_FIX_HOME|GPS_FIX|SMALL_ANGLE|FIXED_WING_LEGACY|COMPASS_CALIBRATED|ACCELEROMETER_CALIBRATED|AIRMODE_ACTIVE|AIRPLANE|ALTITUDE_CONTROL|MOVE_FORWARD_ONLY|SET_REVERSIBLE_MOTORS_FORWARD,IDLE,1,1,151,341,0,0,0,0,0,1,384,397,-1250,-1250,-1250,-1250,-1250,-1250,-1250,-1250,1778576784,5
1792,180653678,0,-55,0,-3,0,4,0,0,0,0,0,0,-125,0,1501,1230,1500,987,0,-231,0,1050,12.570,362,-243,-1202,306,1023,7,-2,-6,8,-2,-7,312,-248,1935,105,9838,-149,-994,1482,1000,1378,1628,1,37,121,272,291,-195,0,3,25,6,0,0,0,0,0,0,0,0,1,ARM,0,GPS_FIX_HOME|GPS_FIX|SMALL_ANGLE|FIXED_WING_LEGACY|COMPASS_CALIBRATED|ACCELEROMETER_CALIBRATED|AIRMODE_ACTIVE|AIRPLANE|ALTITUDE_CONTROL|MOVE_FORWARD_ONLY|SET_REVERSIBLE_MOTORS_FORWARD,IDLE,1,1,136,341,0,0,0,0,0,1,384,397,-1250,-1250,-1250,-1250,-1250,-1250,-1250,-1250,1778576784,5
1824,180670401,0,-53,0,-3,0,4,0,0,0,0,0,-1,-121,0,1497,1238,1500,987,-1,-224,0,1050,12.570,362,-243,-1202,306,1023,7,-3,-7,7,-4,-7,322,-251,1948,124,9840,-138,-996,1472,1000,1383,1627,1,37,121,272,291,-195,0,3,25,5,0,0,0,0,0,0,0,0,1,ARM,0,GPS_FIX_HOME|GPS_FIX|SMALL_ANGLE|FIXED_WING_LEGACY|COMPASS_CALIBRATED|ACCELEROMETER_CALIBRATED|AIRMODE_ACTIVE|AIRPLANE|ALTITUDE_CONTROL|MOVE_FORWARD_ONLY|SET_REVERSIBLE_MOTORS_FORWARD,IDLE,1,1,136,341,0,0,0,0,0,1,384,397,-1250,-1250,-1250,-1250,-1250,-1250,-1250,-1250,1778576784,5
1856,180687097,0,-44,0,-2,-1,4,0,0,0,0,0,0,-101,0,1500,1276,1500,987,0,-187,0,1050,12.570,362,-243,-1202,306,1023,5,-4,-7,4,-5,-7,341,-232,1972,122,9841,-129,-1000,1462,1000,1399,1605,1,37,121,272,291,-195,0,3,25,5,0,0,0,0,0,0,0,0,1,ARM,0,GPS_FIX_HOME|GPS_FIX|SMALL_ANGLE|FIXED_WING_LEGACY|COMPASS_CALIBRATED|ACCELEROMETER_CALIBRATED|AIRMODE_ACTIVE|AIRPLANE|ALTITUDE_CONTROL|MOVE_FORWARD_ONLY|SET_REVERSIBLE_MOTORS_FORWARD,IDLE,1,1,172,341,0,0,0,0,0,1,385,396,-1250,-1250,-1250,-1250,-1250,-1250,-1250,-1250,1778576784,5
1888,180703971,0,-34,0,-1,-3,3,0,0,0,0,0,0,-78,0,1500,1326,1500,987,0,-144,0,1050,12.560,362,-243,-1202,306,1023,3,-5,-6,1,-4,-6,345,-231,1983,113,9842,-122,-1006,1452,1000,1420,1582,1,37,121,273,291,-195,0,2,25,5,0,0,0,0,0,0,0,0,1,ARM,0,GPS_FIX_HOME|GPS_FIX|SMALL_ANGLE|FIXED_WING_LEGACY|COMPASS_CALIBRATED|ACCELEROMETER_CALIBRATED|AIRMODE_ACTIVE|AIRPLANE|ALTITUDE_CONTROL|MOVE_FORWARD_ONLY|SET_REVERSIBLE_MOTORS_FORWARD,IDLE,1,1,172,341,0,0,0,0,0,1,385,396,-1250,-1250,-1250,-1250,-1250,-1250,-1250,-1250,1778576784,5
1920,180720824,0,-17,0,0,-4,3,0,0,0,0,0,0,-39,0,1500,1426,1500,987,0,-73,0,1050,12.570,358,-251,-1210,298,1023,1,-5,-5,2,-5,-4,365,-240,1994,106,9843,-118,-1012,1444,1000,1457,1543,1,37,121,273,291,-195,0,2,25,5,0,0,0,0,0,0,0,0,1,ARM,0,GPS_FIX_HOME|GPS_FIX|SMALL_ANGLE|FIXED_WING_LEGACY|COMPASS_CALIBRATED|ACCELEROMETER_CALIBRATED|AIRMODE_ACTIVE|AIRPLANE|ALTITUDE_CONTROL|MOVE_FORWARD_ONLY|SET_REVERSIBLE_MOTORS_FORWARD,IDLE,1,1,127,341,0,0,0,0,0,1,385,396,-1250,-1250,-1250,-1250,-1250,-1250,-1250,-1250,1778576784,5
1952,180737526,0,-7,0,0,-1,2,0,0,0,0,0,0,-17,0,1500,1493,1500,987,0,-32,0,1050,12.570,358,-251,-1210,298,1023,0,-4,-4,-1,-4,-4,376,-240,1995,105,9843,-117,-1019,1437,1000,1482,1518,1,37,121,273,291,-195,0,1,25,6,0,0,0,0,0,0,0,0,1,ARM,0,GPS_FIX_HOME|GPS_FIX|SMALL_ANGLE|FIXED_WING_LEGACY|ANTI_WINDUP|COMPASS_CALIBRATED|ACCELEROMETER_CALIBRATED|AIRMODE_ACTIVE|AIRPLANE|ALTITUDE_CONTROL|MOVE_FORWARD_ONLY|SET_REVERSIBLE_MOTORS_FORWARD,IDLE,1,1,116,341,0,0,0,0,0,1,385,396,-1250,-1250,-1250,-1250,-1250,-1250,-1250,-1250,1778576784,5
1984,180754080,0,-1,0,0,1,2,0,0,0,0,0,0,-2,0,1500,1493,1500,987,0,-5,0,1050,12.570,358,-251,-1210,298,1023,0,-4,-3,2,-2,-3,383,-227,1985,105,9843,-117,-1025,1431,1000,1499,1501,1,37,121,273,291,-195,0,1,25,6,0,0,0,0,0,0,0,0,1,ARM,0,GPS_FIX_HOME|GPS_FIX|SMALL_ANGLE|FIXED_WING_LEGACY|ANTI_WINDUP|COMPASS_CALIBRATED|ACCELEROMETER_CALIBRATED|AIRMODE_ACTIVE|AIRPLANE|ALTITUDE_CONTROL|MOVE_FORWARD_ONLY|SET_REVERSIBLE_MOTORS_FORWARD,IDLE,1,1,127,341,0,0,0,0,0,1,385,396,-1250,-1250,-1250,-1250,-1250,-1250,-1250,-1250,1778576784,5
2016,180770672,0,0,0,0,1,1,0,0,0,0,0,0,0,0,1500,1500,1500,987,0,0,0,1050,12.570,358,-251,-1210,298,1023,1,-3,-3,0,-2,-3,391,-219,1997,109,9843,-115,-1030,1426,1000,1501,1499,1,37,121,273,291,-194,0,1,25,6,0,0,0,0,0,0,0,0,1,ARM,0,GPS_FIX_HOME|GPS_FIX|SMALL_ANGLE|FIXED_WING_LEGACY|ANTI_WINDUP|COMPASS_CALIBRATED|ACCELEROMETER_CALIBRATED|AIRMODE_ACTIVE|AIRPLANE|ALTITUDE_CONTROL|MOVE_FORWARD_ONLY|SET_REVERSIBLE_MOTORS_FORWARD,IDLE,1,1,175,341,0,0,0,0,0,1,385,396,-1250,-1250,-1250,-1250,-1250,-1250,-1250,-1250,1778576784,5
2048,180787404,0,0,0,0,1,1,0,0,0,0,0,0,0,0,1500,1500,1500,987,0,0,0,1050,12.570,358,-251,-1210,306,1023,1,-3,-2,1,-2,-1,403,-221,1972,102,9844,-113,-1034,1422,1000,1502,1500,1,37,121,273,291,-194,0,1,25,6,0,0,0,0,0,0,0,0,1,ARM,0,GPS_FIX_HOME|GPS_FIX|SMALL_ANGLE|FIXED_WING_LEGACY|ANTI_WINDUP|COMPASS_CALIBRATED|ACCELEROMETER_CALIBRATED|AIRMODE_ACTIVE|AIRPLANE|ALTITUDE_CONTROL|MOVE_FORWARD_ONLY|SET_REVERSIBLE_MOTORS_FORWARD,IDLE,1,1,175,341,0,0,0,0,0,1,385,396,-1250,-1250,-1250,-1250,-1250,-1250,-1250,-1250,1778576784,5
2080,180803921,-1,0,0,-1,1,0,0,0,0,0,0,-2,0,0,1497,1500,1500,987,-2,0,0,1050,12.570,358,-251,-1210,306,1023,2,-2,-1,2,-2,0,409,-210,1953,95,9844,-111,-1037,1419,1000,1505,1503,1,37,121,273,291,-194,0,1,24,6,0,0,0,0,0,0,0,0,1,ARM,0,GPS_FIX_HOME|GPS_FIX|SMALL_ANGLE|FIXED_WING_LEGACY|ANTI_WINDUP|COMPASS_CALIBRATED|ACCELEROMETER_CALIBRATED|AIRMODE_ACTIVE|AIRPLANE|ALTITUDE_CONTROL|MOVE_FORWARD_ONLY|SET_REVERSIBLE_MOTORS_FORWARD,IDLE,1,1,130,341,0,0,0,0,0,1,385,396,-1250,-1250,-1250,-1250,-1250,-1250,-1250,-1250,1778576784,5
2112,180820747,0,0,0,-1,1,0,0,0,0,0,0,0,0,0,1500,1498,1500,987,0,0,0,1050,12.570,344,-261,-1194,298,1023,3,-2,0,3,-2,0,409,-189,1944,87,9844,-107,-1040,1418,1000,1502,1500,1,37,121,273,290,-194,0,1,24,6,0,0,0,0,0,0,0,0,1,ARM,0,GPS_FIX_HOME|GPS_FIX|SMALL_ANGLE|FIXED_WING_LEGACY|ANTI_WINDUP|COMPASS_CALIBRATED|ACCELEROMETER_CALIBRATED|AIRMODE_ACTIVE|AIRPLANE|ALTITUDE_CONTROL|MOVE_FORWARD_ONLY|SET_REVERSIBLE_MOTORS_FORWARD,IDLE,1,1,124,341,0,0,0,0,0,1,385,396,-1250,-1250,-1250,-1250,-1250,-1250,-1250,-1250,1778576784,5
2144,180837245,0,0,0,-1,1,0,0,0,0,0,0,0,0,0,1500,1500,1500,987,0,0,0,1050,12.570,344,-261,-1194,298,1023,3,-2,1,3,-2,1,398,-206,1945,80,9843,-103,-1042,1418,1000,1503,1501,1,37,121,273,290,-194,0,0,23,6,0,0,0,0,0,0,0,0,1,ARM,0,GPS_FIX_HOME|GPS_FIX|SMALL_ANGLE|FIXED_WING_LEGACY|ANTI_WINDUP|COMPASS_CALIBRATED|ACCELEROMETER_CALIBRATED|AIRMODE_ACTIVE|AIRPLANE|ALTITUDE_CONTROL|MOVE_FORWARD_ONLY|SET_REVERSIBLE_MOTORS_FORWARD,IDLE,1,1,124,341,0,0,0,0,0,1,385,396,-1250,-1250,-1250,-1250,-1250,-1250,-1250,-1250,1778576784,5
2176,180853778,0,0,0,-1,0,0,0,0,0,0,0,0,0,0,1500,1500,1500,987,0,0,0,1050,12.560,344,-261,-1194,298,1023,3,-1,1,2,-1,2,392,-235,1971,74,9843,-99,-1044,1419,1000,1501,1501,1,37,121,273,290,-194,0,0,22,6,0,0,0,0,0,0,0,0,1,ARM,0,GPS_FIX_HOME|GPS_FIX|SMALL_ANGLE|FIXED_WING_LEGACY|ANTI_WINDUP|COMPASS_CALIBRATED|ACCELEROMETER_CALIBRATED|AIRMODE_ACTIVE|AIRPLANE|ALTITUDE_CONTROL|MOVE_FORWARD_ONLY|SET_REVERSIBLE_MOTORS_FORWARD,IDLE,1,1,159,341,0,0,0,0,0,1,385,396,-1250,-1250,-1250,-1250,-1250,-1250,-1250,-1250,1778576784,5
2208,180870288,0,0,0,-1,0,-1,0,0,0,0,0,0,0,0,1500,1500,1500,987,0,0,0,1050,12.560,344,-261,-1194,298,1023,3,0,2,4,0,3,380,-244,1984,69,9843,-95,-1045,1421,1000,1501,1501,1,37,121,273,290,-194,0,0,22,6,0,0,0,0,0,0,0,0,1,ARM,0,GPS_FIX_HOME|GPS_FIX|SMALL_ANGLE|FIXED_WING_LEGACY|ANTI_WINDUP|COMPASS_CALIBRATED|ACCELEROMETER_CALIBRATED|AIRMODE_ACTIVE|AIRPLANE|ALTITUDE_CONTROL|MOVE_FORWARD_ONLY|SET_REVERSIBLE_MOTORS_FORWARD,IDLE,1,1,159,341,0,0,0,0,0,1,384,396,-1250,-1250,-1250,-1250,-1250,-1250,-1250,-1250,1778576784,5
2240,180886825,0,0,0,-1,0,-2,0,0,0,0,0,0,0,0,1500,1500,1500,987,0,0,0,1050,12.560,344,-261,-1194,298,1023,4,0,3,5,-1,4,377,-260,1983,64,9842,-91,-1044,1425,1000,1502,1502,1,37,121,273,290,-194,0,0,22,6,0,0,0,0,0,0,0,0,1,ARM,0,GPS_FIX_HOME|GPS_FIX|SMALL_ANGLE|FIXED_WING_LEGACY|ANTI_WINDUP|COMPASS_CALIBRATED|ACCELEROMETER_CALIBRATED|AIRMODE_ACTIVE|AIRPLANE|ALTITUDE_CONTROL|MOVE_FORWARD_ONLY|SET_REVERSIBLE_MOTORS_FORWARD,IDLE,1,1,137,341,0,0,0,0,0,1,384,396,-1250,-1250,-1250,-1250,-1250,-1250,-1250,-1250,1778576784,5
2272,180903406,0,0,0,-2,0,-2,0,0,0,0,0,0,0,0,1498,1500,1500,987,0,0,0,1050,12.560,344,-261,-1194,298,1023,5,-1,5,5,-1,5,402,-268,1969,60,9842,-86,-1044,1430,1000,1503,1503,1,37,121,273,290,-194,0,0,22,6,0,0,0,0,0,0,0,0,1,ARM,0,GPS_FIX_HOME|GPS_FIX|SMALL_ANGLE|FIXED_WING_LEGACY|ANTI_WINDUP|COMPASS_CALIBRATED|ACCELEROMETER_CALIBRATED|AIRMODE_ACTIVE|AIRPLANE|ALTITUDE_CONTROL|MOVE_FORWARD_ONLY|SET_REVERSIBLE_MOTORS_FORWARD,IDLE,1,1,114,341,0,0,0,0,0,1,384,396,-1250,-1250,-1250,-1250,-1250,-1250,-1250,-1250,1778576784,5
2304,180920197,0,0,0,-2,0,-3,0,0,0,0,0,0,0,0,1498,1500,1500,987,0,0,0,1050,12.560,348,-259,-1189,298,1023,6,-2,6,6,-1,6,416,-267,1966,55,9840,-79,-1045,1438,1000,1503,1503,1,37,121,273,290,-194,0,0,22,6,0,0,0,0,0,0,0,0,1,ARM,0,GPS_FIX_HOME|GPS_FIX|SMALL_ANGLE|FIXED_WING_LEGACY|ANTI_WINDUP|COMPASS_CALIBRATED|ACCELEROMETER_CALIBRATED|AIRMODE_ACTIVE|AIRPLANE|ALTITUDE_CONTROL|MOVE_FORWARD_ONLY|SET_REVERSIBLE_MOTORS_FORWARD,IDLE,1,1,117,341,0,0,0,0,0,1,384,396,-1250,-1250,-1250,-1250,-1250,-1250,-1250,-1250,1778576784,5
2336,180936785,0,0,0,-3,0,-4,0,0,0,0,0,0,0,0,1500,1500,1500,987,0,0,0,1050,12.560,348,-259,-1189,298,1023,7,-1,6,8,-1,6,423,-255,1976,51,9839,-72,-1046,1446,1000,1504,1504,1,37,121,273,290,-194,1,0,22,6,0,0,0,0,0,0,0,0,1,ARM,0,GPS_FIX_HOME|GPS_FIX|SMALL_ANGLE|FIXED_WING_LEGACY|ANTI_WINDUP|COMPASS_CALIBRATED|ACCELEROMETER_CALIBRATED|AIRMODE_ACTIVE|AIRPLANE|ALTITUDE_CONTROL|MOVE_FORWARD_ONLY|SET_REVERSIBLE_MOTORS_FORWARD,IDLE,1,1,147,341,0,0,0,0,0,1,384,396,-1250,-1250,-1250,-1250,-1250,-1250,-1250,-1250,1778576784,5
2368,180953311,0,0,0,-4,0,-4,0,0,0,0,0,0,0,0,1500,1500,1500,987,0,0,0,1050,12.560,348,-259,-1189,306,1023,8,0,6,9,0,6,418,-235,1975,48,9838,-63,-1045,1456,1000,1504,1504,1,37,121,273,290,-194,1,0,22,7,0,0,0,0,0,0,0,0,1,ARM,0,GPS_FIX_HOME|GPS_FIX|SMALL_ANGLE|FIXED_WING_LEGACY|ANTI_WINDUP|COMPASS_CALIBRATED|ACCELEROMETER_CALIBRATED|AIRMODE_ACTIVE|AIRPLANE|ALTITUDE_CONTROL|MOVE_FORWARD_ONLY|SET_REVERSIBLE_MOTORS_FORWARD,IDLE,1,1,147,341,0,0,0,0,0,1,384,396,-1250,-1250,-1250,-1250,-1250,-1250,-1250,-1250,1778576784,5
2400,180969995,0,0,0,-4,0,-3,0,0,0,0,0,0,0,0,1500,1500,1500,987,0,0,0,1050,12.560,348,-259,-1189,298,1023,9,0,6,8,1,6,411,-234,1995,47,9837,-52,-1044,1465,1000,1504,1504,1,37,121,273,290,-194,1,0,22,7,0,0,0,0,0,0,0,0,1,ARM,0,GPS_FIX_HOME|GPS_FIX|SMALL_ANGLE|FIXED_WING_LEGACY|ANTI_WINDUP|COMPASS_CALIBRATED|ACCELEROMETER_CALIBRATED|AIRMODE_ACTIVE|AIRPLANE|ALTITUDE_CONTROL|MOVE_FORWARD_ONLY|SET_REVERSIBLE_MOTORS_FORWARD,IDLE,1,1,147,341,0,0,0,0,0,1,384,396,-1250,-1250,-1250,-1250,-1250,-1250,-1250,-1250,1778576784,5
2432,180986522,0,0,0,-3,0,-4,0,0,0,0,0,0,0,0,1500,1500,1500,987,0,0,0,1050,12.560,348,-259,-1189,298,1023,7,2,6,7,3,6,409,-261,2019,45,9836,-43,-1041,1474,1000,1504,1504,1,37,121,273,289,-194,1,0,22,7,0,0,0,0,0,0,0,0,1,ARM,0,GPS_FIX_HOME|GPS_FIX|SMALL_ANGLE|FIXED_WING_LEGACY|ANTI_WINDUP|COMPASS_CALIBRATED|ACCELEROMETER_CALIBRATED|AIRMODE_ACTIVE|AIRPLANE|ALTITUDE_CONTROL|MOVE_FORWARD_ONLY|SET_REVERSIBLE_MOTORS_FORWARD,IDLE,1,1,114,341,0,0,0,0,0,1,384,396,-1250,-1250,-1250,-1250,-1250,-1250,-1250,-1250,1778576784,5
2464,181003286,0,0,0,-2,-1,-4,0,0,0,0,0,0,0,0,1500,1498,1500,987,0,0,0,1050,12.560,348,-259,-1189,298,1023,6,3,6,5,4,6,416,-251,2016,43,9835,-36,-1035,1483,1000,1502,1504,1,37,121,273,289,-194,1,0,22,7,0,0,0,0,0,0,0,0,1,ARM,0,GPS_FIX_HOME|GPS_FIX|SMALL_ANGLE|FIXED_WING_LEGACY|ANTI_WINDUP|COMPASS_CALIBRATED|ACCELEROMETER_CALIBRATED|AIRMODE_ACTIVE|AIRPLANE|ALTITUDE_CONTROL|MOVE_FORWARD_ONLY|SET_REVERSIBLE_MOTORS_FORWARD,IDLE,1,1,114,341,0,0,0,0,0,1,384,396,-1250,-1250,-1250,-1250,-1250,-1250,-1250,-1250,1778576784,5
2496,181019788,0,0,0,-2,-1,-4,0,0,0,0,0,0,0,0,1498,1498,1500,987,0,0,0,1050,12.560,350,-286,-1200,298,1023,5,4,6,5,4,6,446,-242,1979,45,9834,-31,-1029,1491,1000,1500,1504,1,37,121,273,289,-194,1,1,22,8,0,0,0,0,0,0,0,0,1,ARM,0,GPS_FIX_HOME|GPS_FIX|SMALL_ANGLE|FIXED_WING_LEGACY|ANTI_WINDUP|COMPASS_CALIBRATED|ACCELEROMETER_CALIBRATED|AIRMODE_ACTIVE|AIRPLANE|ALTITUDE_CONTROL|MOVE_FORWARD_ONLY|SET_REVERSIBLE_MOTORS_FORWARD,IDLE,1,1,114,341,0,0,0,0,0,1,384,396,-1250,-1250,-1250,-1250,-1250,-1250,-1250,-1250,1778576784,5
2528,181036287,0,0,0,-2,-1,-3,0,0,0,0,0,0,0,0,1498,1500,1500,987,0,0,0,1050,12.560,350,-286,-1200,298,1023,5,4,5,5,4,5,452,-255,1934,48,9834,-26,-1023,1500,1000,1500,1504,1,37,121,273,289,-194,1,2,22,8,0,0,0,0,0,0,0,0,1,ARM,0,GPS_FIX_HOME|GPS_FIX|SMALL_ANGLE|FIXED_WING_LEGACY|ANTI_WINDUP|COMPASS_CALIBRATED|ACCELEROMETER_CALIBRATED|AIRMODE_ACTIVE|AIRPLANE|ALTITUDE_CONTROL|MOVE_FORWARD_ONLY|SET_REVERSIBLE_MOTORS_FORWARD,IDLE,1,1,163,341,0,0,0,0,0,1,384,396,-1250,-1250,-1250,-1250,-1250,-1250,-1250,-1250,1778576784,5
2560,181052787,0,0,0,-2,-1,-2,0,0,0,0,0,0,0,0,1500,1500,1500,987,0,0,0,1050,12.560,350,-286,-1200,298,1023,5,4,3,5,4,2,439,-260,1901,48,9834,-22,-1017,1506,1000,1501,1503,1,37,121,273,289,-194,1,3,22,8,0,0,0,0,0,0,0,0,1,ARM,0,GPS_FIX_HOME|GPS_FIX|SMALL_ANGLE|FIXED_WING_LEGACY|ANTI_WINDUP|COMPASS_CALIBRATED|ACCELEROMETER_CALIBRATED|AIRMODE_ACTIVE|AIRPLANE|ALTITUDE_CONTROL|MOVE_FORWARD_ONLY|SET_REVERSIBLE_MOTORS_FORWARD,IDLE,1,1,163,341,0,0,0,0,0,1,383,396,-1250,-1250,-1250,-1250,-1250,-1250,-1250,-1250,1778576784,5
2592,181069308,0,0,0,-3,-1,0,0,0,0,0,0,0,0,0,1500,1500,1500,987,0,0,0,1050,12.560,350,-286,-1200,298,1023,7,4,1,8,3,0,428,-245,1892,47,9834,-15,-1011,1509,1000,1502,1504,1,37,121,273,289,-194,1,3,22,8,0,0,0,0,0,0,0,0,1,ARM,0,GPS_FIX_HOME|GPS_FIX|SMALL_ANGLE|FIXED_WING_LEGACY|ANTI_WINDUP|COMPASS_CALIBRATED|ACCELEROMETER_CALIBRATED|AIRMODE_ACTIVE|AIRPLANE|ALTITUDE_CONTROL|MOVE_FORWARD_ONLY|SET_REVERSIBLE_MOTORS_FORWARD,IDLE,1,1,119,341,0,0,0,0,0,1,383,396,-1250,-1250,-1250,-1250,-1250,-1250,-1250,-1250,1778576784,5
2624,181085864,0,0,0,-3,-1,0,0,0,0,0,0,0,0,0,1500,1500,1500,987,0,0,0,1050,12.560,350,-286,-1200,298,1023,8,4,-1,8,4,-2,433,-229,1894,43,9834,-6,-1005,1510,1000,1503,1505,1,37,121,273,289,-194,1,3,22,7,0,0,0,0,0,0,0,0,1,ARM,0,GPS_FIX_HOME|GPS_FIX|SMALL_ANGLE|FIXED_WING_LEGACY|ANTI_WINDUP|COMPASS_CALIBRATED|ACCELEROMETER_CALIBRATED|AIRMODE_ACTIVE|AIRPLANE|ALTITUDE_CONTROL|MOVE_FORWARD_ONLY|SET_REVERSIBLE_MOTORS_FORWARD,IDLE,1,1,120,341,0,0,0,0,0,1,383,396,-1250,-1250,-1250,-1250,-1250,-1250,-1250,-1250,1778576784,5
2656,181102434,0,0,0,-3,-1,1,0,0,0,0,0,0,0,0,1498,1500,1500,987,0,0,0,1050,12.560,350,-286,-1200,298,1023,7,4,-3,7,4,-4,433,-222,1905,41,9835,3,-999,1507,1000,1503,1505,1,37,121,274,289,-194,1,4,22,6,0,0,0,0,0,0,0,0,1,ARM,0,GPS_FIX_HOME|GPS_FIX|SMALL_ANGLE|FIXED_WING_LEGACY|ANTI_WINDUP|COMPASS_CALIBRATED|ACCELEROMETER_CALIBRATED|AIRMODE_ACTIVE|AIRPLANE|ALTITUDE_CONTROL|MOVE_FORWARD_ONLY|SET_REVERSIBLE_MOTORS_FORWARD,IDLE,1,1,121,341,0,0,0,0,0,1,383,396,-1250,-1250,-1250,-1250,-1250,-1250,-1250,-1250,1778576784,5
2688,181119464,0,0,0,-3,-2,2,0,0,0,0,0,0,0,0,1500,1500,1500,987,0,0,0,1050,12.560,358,-285,-1190,298,1023,6,5,-5,5,6,-5,419,-216,1938,42,9837,12,-993,1502,1000,1501,1505,1,37,121,274,289,-194,1,5,22,6,0,0,0,0,0,0,0,0,1,ARM,0,GPS_FIX_HOME|GPS_FIX|SMALL_ANGLE|FIXED_WING_LEGACY|ANTI_WINDUP|COMPASS_CALIBRATED|ACCELEROMETER_CALIBRATED|AIRMODE_ACTIVE|AIRPLANE|ALTITUDE_CONTROL|MOVE_FORWARD_ONLY|SET_REVERSIBLE_MOTORS_FORWARD,IDLE,1,1,177,341,0,0,0,0,0,1,383,396,-1250,-1250,-1250,-1250,-1250,-1250,-1250,-1250,1778576784,5
2720,181136058,0,0,0,-2,-3,3,0,0,0,0,0,-1,0,0,1497,1500,1500,987,-1,0,0,1050,12.560,358,-285,-1190,298,1023,5,7,-6,4,8,-6,409,-196,1965,45,9839,17,-985,1495,1000,1500,1506,1,37,121,274,289,-194,1,5,21,6,0,0,0,0,0,0,0,0,1,ARM,0,GPS_FIX_HOME|GPS_FIX|SMALL_ANGLE|FIXED_WING_LEGACY|ANTI_WINDUP|COMPASS_CALIBRATED|ACCELEROMETER_CALIBRATED|AIRMODE_ACTIVE|AIRPLANE|ALTITUDE_CONTROL|MOVE_FORWARD_ONLY|SET_REVERSIBLE_MOTORS_FORWARD,IDLE,1,1,177,341,0,0,0,0,0,1,383,396,-1250,-1250,-1250,-1250,-1250,-1250,-1250,-1250,1778576784,5
2752,181152541,0,0,0,-1,-4,4,0,0,0,0,0,0,0,0,1498,1498,1500,987,0,0,0,1050,12.560,358,-285,-1190,298,1023,3,9,-7,3,10,-7,394,-172,1983,45,9841,21,-974,1485,1000,1497,1505,1,37,121,274,289,-194,1,5,21,6,0,0,0,0,0,0,0,0,1,ARM,0,GPS_FIX_HOME|GPS_FIX|SMALL_ANGLE|FIXED_WING_LEGACY|ANTI_WINDUP|COMPASS_CALIBRATED|ACCELEROMETER_CALIBRATED|AIRMODE_ACTIVE|AIRPLANE|ALTITUDE_CONTROL|MOVE_FORWARD_ONLY|SET_REVERSIBLE_MOTORS_FORWARD,IDLE,1,1,128,341,0,0,0,0,0,1,383,396,-1250,-1250,-1250,-1250,-1250,-1250,-1250,-1250,1778576784,5
2784,181169144,0,0,0,0,-5,4,0,0,0,0,0,0,0,0,1500,1500,1500,987,0,0,0,1050,12.560,358,-285,-1190,298,1023,2,11,-7,1,12,-7,379,-184,1985,43,9844,22,-960,1475,1000,1496,1506,1,37,121,274,289,-194,2,5,21,6,0,0,0,0,0,0,0,0,1,ARM,0,GPS_FIX_HOME|GPS_FIX|SMALL_ANGLE|FIXED_WING_LEGACY|ANTI_WINDUP|COMPASS_CALIBRATED|ACCELEROMETER_CALIBRATED|AIRMODE_ACTIVE|AIRPLANE|ALTITUDE_CONTROL|MOVE_FORWARD_ONLY|SET_REVERSIBLE_MOTORS_FORWARD,IDLE,1,1,128,341,0,0,0,0,0,1,383,396,-1250,-1250,-1250,-1250,-1250,-1250,-1250,-1250,1778576784,5
2816,181185656,0,0,0,0,-5,4,0,0,0,0,0,0,0,0,1500,1500,1500,987,0,0,0,1050,12.560,358,-285,-1190,298,1023,1,12,-7,1,13,-7,368,-215,1964,44,9847,21,-944,1464,1000,1494,1506,1,37,121,274,289,-194,2,5,20,6,0,0,0,0,0,0,0,0,1,ARM,0,GPS_FIX_HOME|GPS_FIX|SMALL_ANGLE|FIXED_WING_LEGACY|ANTI_WINDUP|COMPASS_CALIBRATED|ACCELEROMETER_CALIBRATED|AIRMODE_ACTIVE|AIRPLANE|ALTITUDE_CONTROL|MOVE_FORWARD_ONLY|SET_REVERSIBLE_MOTORS_FORWARD,IDLE,1,1,128,341,0,0,0,0,0,1,383,396,-1250,-1250,-1250,-1250,-1250,-1250,-1250,-1250,1778576784,5
2848,181202151,0,0,0,0,-6,4,0,0,0,0,0,0,0,0,1500,1500,1500,987,0,0,0,1050,12.560,358,-285,-1190,298,1023,1,12,-6,2,12,-6,365,-242,1931,45,9850,18,-927,1454,1000,1494,1506,1,37,121,274,289,-194,2,5,20,6,0,0,0,0,0,0,0,0,1,ARM,0,GPS_FIX_HOME|GPS_FIX|SMALL_ANGLE|FIXED_WING_LEGACY|ANTI_WINDUP|COMPASS_CALIBRATED|ACCELEROMETER_CALIBRATED|AIRMODE_ACTIVE|AIRPLANE|ALTITUDE_CONTROL|MOVE_FORWARD_ONLY|SET_REVERSIBLE_MOTORS_FORWARD,IDLE,1,1,175,341,0,0,0,0,0,1,383,396,-1250,-1250,-1250,-1250,-1250,-1250,-1250,-1250,1778576784,5
2880,181218908,0,0,0,-1,-5,3,0,0,0,0,0,0,0,0,1500,1498,1500,987,0,0,0,1050,12.570,368,-289,-1178,298,1023,3,11,-6,4,10,-5,369,-253,1909,44,9853,18,-911,1445,1000,1496,1506,1,37,121,274,289,-194,2,5,20,5,0,0,0,0,0,0,0,0,1,ARM,0,GPS_FIX_HOME|GPS_FIX|SMALL_ANGLE|FIXED_WING_LEGACY|ANTI_WINDUP|COMPASS_CALIBRATED|ACCELEROMETER_CALIBRATED|AIRMODE_ACTIVE|AIRPLANE|ALTITUDE_CONTROL|MOVE_FORWARD_ONLY|SET_REVERSIBLE_MOTORS_FORWARD,IDLE,1,1,175,341,0,0,0,0,0,1,383,396,-1250,-1250,-1250,-1250,-1250,-1250,-1250,-1250,1778576784,5
2912,181235285,0,0,0,-2,-4,3,0,0,0,0,0,0,0,0,1500,1500,1500,987,0,0,0,1050,12.560,368,-289,-1178,298,1023,5,9,-5,6,8,-4,391,-257,1906,43,9855,20,-898,1437,1000,1499,1507,1,37,121,274,289,-194,2,6,21,5,0,0,0,0,0,0,0,0,1,ARM,0,GPS_FIX_HOME|GPS_FIX|SMALL_ANGLE|FIXED_WING_LEGACY|ANTI_WINDUP|COMPASS_CALIBRATED|ACCELEROMETER_CALIBRATED|AIRMODE_ACTIVE|AIRPLANE|ALTITUDE_CONTROL|MOVE_FORWARD_ONLY|SET_REVERSIBLE_MOTORS_FORWARD,IDLE,1,1,128,341,0,0,0,0,0,1,383,396,-1250,-1250,-1250,-1250,-1250,-1250,-1250,-1250,1778576784,5
2944,181251869,0,0,0,-3,-3,2,0,0,0,0,0,0,0,0,1500,1500,1500,987,0,0,0,1050,12.560,368,-289,-1178,298,1023,7,7,-3,8,7,-3,424,-245,1923,44,9857,25,-887,1432,1000,1501,1507,1,37,121,274,289,-194,2,6,21,5,0,0,0,0,0,0,0,0,1,ARM,0,GPS_FIX_HOME|GPS_FIX|SMALL_ANGLE|FIXED_WING_LEGACY|ANTI_WINDUP|COMPASS_CALIBRATED|ACCELEROMETER_CALIBRATED|AIRMODE_ACTIVE|AIRPLANE|ALTITUDE_CONTROL|MOVE_FORWARD_ONLY|SET_REVERSIBLE_MOTORS_FORWARD,IDLE,1,1,128,341,0,0,0,0,0,1,383,396,-1250,-1250,-1250,-1250,-1250,-1250,-1250,-1250,1778576784,5
2976,181268356,0,0,0,-4,-3,1,0,0,0,0,0,-1,0,0,1496,1498,1500,987,-1,0,0,1050,12.560,368,-289,-1178,298,1023,8,7,-2,8,7,-1,461,-218,1952,50,9858,32,-877,1428,1000,1503,1509,1,37,121,274,289,-194,2,7,21,4,0,0,0,0,0,0,0,0,1,ARM,0,GPS_FIX_HOME|GPS_FIX|SMALL_ANGLE|FIXED_WING_LEGACY|ANTI_WINDUP|COMPASS_CALIBRATED|ACCELEROMETER_CALIBRATED|AIRMODE_ACTIVE|AIRPLANE|ALTITUDE_CONTROL|MOVE_FORWARD_ONLY|SET_REVERSIBLE_MOTORS_FORWARD,IDLE,1,1,174,341,0,0,0,0,0,1,383,396,-1250,-1250,-1250,-1250,-1250,-1250,-1250,-1250,1778576784,5
3008,181285143,0,0,0,-3,-3,0,0,0,0,0,0,0,0,0,1500,1500,1500,987,0,0,0,1050,12.560,368,-289,-1178,298,1023,7,7,-1,6,8,-1,486,-190,1993,56,9860,41,-867,1427,1000,1501,1507,1,37,121,274,289,-194,2,8,21,4,0,0,0,0,0,0,0,0,1,ARM,0,GPS_FIX_HOME|GPS_FIX|SMALL_ANGLE|FIXED_WING_LEGACY|ANTI_WINDUP|COMPASS_CALIBRATED|ACCELEROMETER_CALIBRATED|AIRMODE_ACTIVE|AIRPLANE|ALTITUDE_CONTROL|MOVE_FORWARD_ONLY|SET_REVERSIBLE_MOTORS_FORWARD,IDLE,1,1,129,341,0,0,0,0,0,1,383,396,-1250,-1250,-1250,-1250,-1250,-1250,-1250,-1250,1778576784,5
3040,181301602,0,0,0,-2,-4,0,0,0,0,0,0,0,0,0,1500,1500,1500,987,0,0,0,1050,12.560,368,-289,-1178,289,1023,5,9,-1,5,10,-2,490,-173,2030,58,9861,48,-856,1425,1000,1498,1506,1,37,121,274,289,-194,2,9,21,5,0,0,0,0,0,0,0,0,1,ARM,0,GPS_FIX_HOME|GPS_FIX|SMALL_ANGLE|FIXED_WING_LEGACY|ANTI_WINDUP|COMPASS_CALIBRATED|ACCELEROMETER_CALIBRATED|AIRMODE_ACTIVE|AIRPLANE|ALTITUDE_CONTROL|MOVE_FORWARD_ONLY|SET_REVERSIBLE_MOTORS_FORWARD,IDLE,1,1,174,341,0,0,0,0,0,1,383,396,-1250,-1250,-1250,-1250,-1250,-1250,-1250,-1250,1778576784,5
3072,181318421,0,0,0,-1,-5,1,0,0,0,0,0,0,0,0,1500,1500,1500,987,0,0,0,1050,12.560,395,-297,-1177,289,1023,4,11,-2,4,11,-3,497,-155,2043,58,9863,51,-839,1423,1000,1497,1507,1,37,121,274,289,-194,2,10,20,6,0,0,0,0,0,0,0,0,1,ARM,0,GPS_FIX_HOME|GPS_FIX|SMALL_ANGLE|FIXED_WING_LEGACY|ANTI_WINDUP|COMPASS_CALIBRATED|ACCELEROMETER_CALIBRATED|AIRMODE_ACTIVE|AIRPLANE|ALTITUDE_CONTROL|MOVE_FORWARD_ONLY|SET_REVERSIBLE_MOTORS_FORWARD,IDLE,1,1,129,341,0,0,0,0,0,1,383,396,-1250,-1250,-1250,-1250,-1250,-1250,-1250,-1250,1778576784,5
3104,181334898,0,0,0,-2,-5,2,0,0,0,0,0,0,0,0,1500,1498,1500,987,0,0,0,1050,12.560,395,-297,-1177,298,1023,4,12,-4,5,12,-4,501,-148,2037,54,9865,53,-820,1418,1000,1496,1508,1,37,121,274,289,-194,2,10,20,6,0,0,0,0,0,0,0,0,1,ARM,0,GPS_FIX_HOME|GPS_FIX|SMALL_ANGLE|FIXED_WING_LEGACY|ANTI_WINDUP|COMPASS_CALIBRATED|ACCELEROMETER_CALIBRATED|AIRMODE_ACTIVE|AIRPLANE|ALTITUDE_CONTROL|MOVE_FORWARD_ONLY|SET_REVERSIBLE_MOTORS_FORWARD,IDLE,1,1,129,341,0,0,0,0,0,1,383,396,-1250,-1250,-1250,-1250,-1250,-1250,-1250,-1250,1778576784,5
3136,181351335,0,0,0,-2,-6,3,0,0,0,0,0,0,0,0,1500,1500,1500,987,0,0,0,1050,12.560,395,-297,-1177,298,1023,5,13,-5,5,13,-6,478,-148,2032,50,9867,56,-801,1412,1000,1496,1508,1,37,121,274,289,-194,2,12,20,6,0,0,0,0,0,0,0,0,1,ARM,0,GPS_FIX_HOME|GPS_FIX|SMALL_ANGLE|FIXED_WING_LEGACY|ANTI_WINDUP|COMPASS_CALIBRATED|ACCELEROMETER_CALIBRATED|AIRMODE_ACTIVE|AIRPLANE|ALTITUDE_CONTROL|MOVE_FORWARD_ONLY|SET_REVERSIBLE_MOTORS_FORWARD,IDLE,1,1,163,341,0,0,0,0,0,1,383,396,-1250,-1250,-1250,-1250,-1250,-1250,-1250,-1250,1778576784,5
3168,181367986,0,0,0,-2,-5,3,0,0,0,0,0,0,0,0,1500,1498,1500,987,0,0,0,1050,12.560,395,-297,-1177,298,1023,5,12,-6,5,11,-6,460,-157,2038,47,9870,60,-782,1404,1000,1497,1507,1,37,121,274,289,-194,2,13,20,7,0,0,0,0,0,0,0,0,1,ARM,0,GPS_FIX_HOME|GPS_FIX|SMALL_ANGLE|FIXED_WING_LEGACY|ANTI_WINDUP|COMPASS_CALIBRATED|ACCELEROMETER_CALIBRATED|AIRMODE_ACTIVE|AIRPLANE|ALTITUDE_CONTROL|MOVE_FORWARD_ONLY|SET_REVERSIBLE_MOTORS_FORWARD,IDLE,1,1,163,341,0,0,0,0,0,1,383,396,-1250,-1250,-1250,-1250,-1250,-1250,-1250,-1250,1778576784,5
3200,181384455,0,0,0,-1,-4,2,0,0,0,0,0,0,0,0,1498,1500,1500,987,0,0,0,1050,12.560,395,-297,-1177,298,1023,4,10,-5,4,8,-4,446,-167,2039,44,9872,64,-766,1397,1000,1498,1506,1,37,121,274,289,-194,2,14,19,8,0,0,0,0,0,0,0,0,1,ARM,0,GPS_FIX_HOME|GPS_FIX|SMALL_ANGLE|FIXED_WING_LEGACY|ANTI_WINDUP|COMPASS_CALIBRATED|ACCELEROMETER_CALIBRATED|AIRMODE_ACTIVE|AIRPLANE|ALTITUDE_CONTROL|MOVE_FORWARD_ONLY|SET_REVERSIBLE_MOTORS_FORWARD,IDLE,1,1,139,341,0,0,0,0,0,1,383,396,-1250,-1250,-1250,-1250,-1250,-1250,-1250,-1250,1778576784,5
3232,181400967,0,0,0,-1,-3,1,0,0,0,0,0,0,0,0,1498,1500,1500,987,0,0,0,1050,12.560,395,-297,-1177,298,1023,3,7,-3,3,5,-2,427,-165,2024,46,9874,66,-754,1392,1000,1498,1504,1,37,121,274,289,-194,2,15,19,8,0,0,0,0,0,0,0,0,1,ARM,0,GPS_FIX_HOME|GPS_FIX|SMALL_ANGLE|FIXED_WING_LEGACY|ANTI_WINDUP|COMPASS_CALIBRATED|ACCELEROMETER_CALIBRATED|AIRMODE_ACTIVE|AIRPLANE|ALTITUDE_CONTROL|MOVE_FORWARD_ONLY|SET_REVERSIBLE_MOTORS_FORWARD,IDLE,1,1,113,341,0,0,0,0,0,1,383,396,-1250,-1250,-1250,-1250,-1250,-1250,-1250,-1250,1778576784,5
3264,181417927,0,0,0,-1,-2,0,0,0,0,0,0,0,0,0,1500,1500,1500,987,0,0,0,1050,12.560,410,-299,-1176,298,1023,3,4,-1,3,4,0,363,-157,2007,58,9875,68,-747,1389,1000,1500,1502,1,37,121,274,290,-194,2,16,19,9,0,0,0,0,0,0,0,0,1,ARM,0,GPS_FIX_HOME|GPS_FIX|SMALL_ANGLE|FIXED_WING_LEGACY|ANTI_WINDUP|COMPASS_CALIBRATED|ACCELEROMETER_CALIBRATED|AIRMODE_ACTIVE|AIRPLANE|ALTITUDE_CONTROL|MOVE_FORWARD_ONLY|SET_REVERSIBLE_MOTORS_FORWARD,IDLE,1,1,113,341,0,0,0,0,0,1,383,395,-1250,-1250,-1250,-1250,-1250,-1250,-1250,-1250,1778576784,5
3296,181434535,0,0,0,-1,-1,0,0,0,0,0,0,0,0,0,1500,1500,1500,987,0,0,0,1050,12.560,410,-299,-1176,298,1023,4,3,1,4,3,2,307,-153,1993,62,9875,72,-742,1389,1000,1501,1503,1,37,121,274,290,-194,2,16,19,9,0,0,0,0,0,0,0,0,1,ARM,0,GPS_FIX_HOME|GPS_FIX|SMALL_ANGLE|FIXED_WING_LEGACY|ANTI_WINDUP|COMPASS_CALIBRATED|ACCELEROMETER_CALIBRATED|AIRMODE_ACTIVE|AIRPLANE|ALTITUDE_CONTROL|MOVE_FORWARD_ONLY|SET_REVERSIBLE_MOTORS_FORWARD,IDLE,1,1,114,341,0,0,0,0,0,1,383,395,-1250,-1250,-1250,-1250,-1250,-1250,-1250,-1250,1778576784,5
3328,181451083,0,0,0,-1,-1,-1,0,0,0,0,0,0,0,0,1500,1498,1500,987,0,0,0,1050,12.560,410,-299,-1176,298,1023,4,2,2,4,2,3,273,-162,1987,65,9875,76,-739,1391,1000,1501,1503,1,37,121,274,290,-194,2,16,19,9,0,0,0,0,0,0,0,0,1,ARM,0,GPS_FIX_HOME|GPS_FIX|SMALL_ANGLE|FIXED_WING_LEGACY|ANTI_WINDUP|COMPASS_CALIBRATED|ACCELEROMETER_CALIBRATED|AIRMODE_ACTIVE|AIRPLANE|ALTITUDE_CONTROL|MOVE_FORWARD_ONLY|SET_REVERSIBLE_MOTORS_FORWARD,IDLE,1,1,162,341,0,0,0,0,0,1,383,395,-1250,-1250,-1250,-1250,-1250,-1250,-1250,-1250,1778576784,5
3360,181467638,0,0,0,-1,0,-2,0,0,0,0,0,0,0,0,1500,1500,1500,987,0,0,0,1050,12.570,410,-299,-1176,298,1023,4,2,3,3,1,4,248,-185,1983,67,9875,79,-735,1395,1000,1501,1503,1,37,121,274,290,-194,2,16,18,9,0,0,0,0,0,0,0,0,1,ARM,0,GPS_FIX_HOME|GPS_FIX|SMALL_ANGLE|FIXED_WING_LEGACY|ANTI_WINDUP|COMPASS_CALIBRATED|ACCELEROMETER_CALIBRATED|AIRMODE_ACTIVE|AIRPLANE|ALTITUDE_CONTROL|MOVE_FORWARD_ONLY|SET_REVERSIBLE_MOTORS_FORWARD,IDLE,1,1,162,341,0,0,0,0,0,1,383,395,-1250,-1250,-1250,-1250,-1250,-1250,-1250,-1250,1778576784,5
3392,181484320,0,0,0,-1,0,-2,0,0,0,0,0,0,0,0,1498,1500,1500,987,0,0,0,1050,12.570,410,-299,-1176,306,1023,4,1,3,5,1,3,240,-213,1952,68,9874,81,-733,1399,1000,1502,1502,1,37,121,274,290,-194,3,15,19,9,0,0,0,0,0,0,0,0,1,ARM,0,GPS_FIX_HOME|GPS_FIX|SMALL_ANGLE|FIXED_WING_LEGACY|ANTI_WINDUP|COMPASS_CALIBRATED|ACCELEROMETER_CALIBRATED|AIRMODE_ACTIVE|AIRPLANE|ALTITUDE_CONTROL|MOVE_FORWARD_ONLY|SET_REVERSIBLE_MOTORS_FORWARD,IDLE,1,1,122,341,0,0,0,0,0,1,383,395,-1250,-1250,-1250,-1250,-1250,-1250,-1250,-1250,1778576784,5
3424,181500968,0,0,0,-2,0,-1,0,0,0,0,0,0,0,0,1500,1500,1500,987,0,0,0,1050,12.570,410,-299,-1176,306,1023,6,0,2,8,0,1,200,-214,1923,71,9874,86,-732,1403,1000,1503,1503,1,37,121,275,290,-194,3,15,19,8,0,0,0,0,0,0,0,0,1,ARM,0,GPS_FIX_HOME|GPS_FIX|SMALL_ANGLE|FIXED_WING_LEGACY|ANTI_WINDUP|COMPASS_CALIBRATED|ACCELEROMETER_CALIBRATED|AIRMODE_ACTIVE|AIRPLANE|ALTITUDE_CONTROL|MOVE_FORWARD_ONLY|SET_REVERSIBLE_MOTORS_FORWARD,IDLE,1,1,149,341,0,0,0,0,0,1,383,395,-1250,-1250,-1250,-1250,-1250,-1250,-1250,-1250,1778576784,5
3456,181517562,0,0,0,-4,0,0,0,0,0,0,0,0,0,0,1500,1500,1500,987,0,0,0,1050,12.570,432,-305,-1174,314,1023,10,-1,0,11,-2,-1,151,-216,1909,74,9873,95,-730,1405,1000,1505,1505,1,37,121,275,290,-194,3,15,19,8,0,0,0,0,0,0,0,0,1,ARM,0,GPS_FIX_HOME|GPS_FIX|SMALL_ANGLE|FIXED_WING_LEGACY|ANTI_WINDUP|COMPASS_CALIBRATED|ACCELEROMETER_CALIBRATED|AIRMODE_ACTIVE|AIRPLANE|ALTITUDE_CONTROL|MOVE_FORWARD_ONLY|SET_REVERSIBLE_MOTORS_FORWARD,IDLE,1,1,149,341,0,0,0,0,0,1,383,395,-1250,-1250,-1250,-1250,-1250,-1250,-1250,-1250,1778576784,5
3488,181534043,0,0,0,-6,1,1,0,0,0,0,0,0,0,0,1500,1498,1500,987,0,0,0,1050,12.560,432,-305,-1174,314,1023,13,-2,-2,15,-3,-3,140,-214,1899,69,9874,110,-729,1403,1000,1508,1506,1,37,121,275,290,-194,3,14,20,8,0,0,0,0,0,0,0,0,1,ARM,0,GPS_FIX_HOME|GPS_FIX|SMALL_ANGLE|FIXED_WING_LEGACY|ANTI_WINDUP|COMPASS_CALIBRATED|ACCELEROMETER_CALIBRATED|AIRMODE_ACTIVE|AIRPLANE|ALTITUDE_CONTROL|MOVE_FORWARD_ONLY|SET_REVERSIBLE_MOTORS_FORWARD,IDLE,1,1,149,341,0,0,0,0,0,1,383,395,-1250,-1250,-1250,-1250,-1250,-1250,-1250,-1250,1778576784,5
